intervencionId,codigoSitio,NombreSitio,NombreProyecto,Nombre,Apellido,nombreCorto,EMG,Region,ICD,CasoSigo,estadoSigo,fechaRFPSIGO,fechaRFISIGO,fechaRFASIGO,fechaRFTSIGO,fechaOASIGO,contratista,Latitud,Longitud,ALM,ManoObra,Vendor,EstadoIM,subEstado,FechaEstadoIM,fechaRFPSIM,fechaRFISIM,fechaRFASIM,fechaRFTSIM,fechaOASIM,FechaIntegracionProgramada
23951,A04-S594,Fray Luis Beltran 1,4T4R,Sin Asignar,Sin Asignar,Sin Asignar,ZFLBEA,LITO,,ISM-11892,OA,2021-03-29 12:44:00,2021-03-29 12:44:00,2021-03-29 14:23:00,2021-03-29 14:24:00,2021-03-31 09:11:00,,-32.7937,-60.7326,A04,MOP,Nokia,OA,OA Completado,2021-03-31 09:02:30,2021-03-30 10:06:27,2021-03-30 10:06:43,2021-03-30 10:08:34,2021-03-30 10:09:20,2021-03-31 09:02:30,2021-03-23
23952,A03-S014,Cosquin,4T4R,Sin Asignar,Sin Asignar,Sin Asignar,XICOSQ,MEDI,,ISM-11883,OA,2021-05-17 10:16:59,2021-05-17 10:16:59,2021-05-17 17:46:59,2021-05-17 17:46:59,2021-05-31 16:23:59,,-31.2376,-64.4636,A03,Proveedor,Huawei,OA,OA Completado,2021-05-31 16:13:12,2021-05-17 17:37:01,2021-05-17 17:37:08,2021-05-17 17:38:33,2021-05-17 17:39:19,2021-05-31 16:13:12,2021-05-10
23954,A03-S265,Cordoba Inaudi,4T4R,Sin Asignar,Sin Asignar,Sin Asignar,XCINAU,MEDI,5078688,ISM-12350,OA,2021-08-02 12:27:00,2021-08-02 12:27:00,2021-08-03 14:10:59,2021-08-03 14:10:59,2021-09-08 10:12:59,,-31.4806,-64.2018,A03,Proveedor,Huawei,OA,OA Completado,2021-09-08 09:57:24,2021-08-03 13:54:49,2021-08-03 13:54:57,2021-08-03 13:56:09,2021-08-03 13:57:02,2021-09-08 09:57:24,
23955,A03-S616,Villa Carlos Paz Nextel,4T4R,Sin Asignar,Sin Asignar,Sin Asignar,XVCNXT,MEDI,,ISM-11884,OA,2021-05-14 15:22:00,2021-05-14 15:22:00,2021-05-14 15:24:00,2021-05-14 15:26:00,2021-05-14 15:27:00,,-31.4213,-64.5009,A03,Proveedor,Huawei,OA,OA Completado,2021-05-14 14:39:53,2021-05-11 11:12:08,2021-05-11 11:12:17,2021-05-11 11:13:42,2021-05-11 11:14:27,2021-05-14 14:39:53,2021-05-03
23956,A03-S624,Malvinas Este,4T4R,Sin Asignar,Sin Asignar,Sin Asignar,XMALVE,MEDI,,ISM-11885,OA,2021-07-02 12:24:59,2021-07-02 12:24:59,2021-07-05 12:56:59,2021-07-05 12:56:59,2021-07-05 12:58:00,,-31.3776,-64.0417,A03,Proveedor,Huawei,OA,OA Completado,2021-07-05 12:48:47,2021-07-05 12:46:21,2021-07-05 12:46:33,2021-07-05 12:47:35,2021-07-05 12:48:08,2021-07-05 12:48:47,2021-06-22
23958,A10-S014,Recreo,4T4R,Sin Asignar,Sin Asignar,Sin Asignar,KRECRE,MEDI,5499013,ISM-11895,OA,2021-08-11 08:37:00,2021-08-11 08:37:00,2021-08-11 13:23:59,2021-08-11 13:25:00,2021-08-20 16:45:59,,-29.2747,-65.0467,A10,Proveedor,Huawei,OA,OA Completado,2021-08-20 16:34:29,2021-08-11 00:51:32,2021-08-11 00:52:45,2021-08-11 00:55:03,2021-08-11 13:20:25,2021-08-20 16:34:29,
23960,A11-S024,Ranchillos,4T4R,Sin Asignar,Sin Asignar,Sin Asignar,TRANCH,MEDI,,ISM-11897,OA,2021-06-11 07:57:00,2021-06-11 07:57:00,2021-06-15 10:14:00,2021-06-15 10:14:59,2021-06-15 10:14:59,,-26.955,-65.0438,A11,PROVEEDOR,Huawei,OA,OA Completado,2021-06-15 10:05:14,2021-06-07 21:16:31,2021-06-07 21:16:36,2021-06-10 17:56:14,2021-06-15 10:04:42,2021-06-15 10:05:14,2021-06-01
23961,A11-S103,Bella Vista,4T4R,Sin Asignar,Sin Asignar,Sin Asignar,TBVIST,MEDI,,ISM-11898,OA,2021-05-31 16:12:59,2021-05-31 16:12:59,2021-05-31 16:14:00,2021-05-31 16:16:00,2021-05-31 16:16:00,,-27.0336,-65.3076,A11,Proveedor,Huawei,OA,OA Completado,2021-05-31 16:04:26,2021-05-22 19:43:42,2021-05-22 19:43:50,2021-05-28 16:40:20,2021-05-28 16:40:56,2021-05-31 16:04:26,2021-05-21
23962,A11-S124,Tucuman Judiciales,4T4R,Sin Asignar,Sin Asignar,Sin Asignar,TCJUDI,MEDI,,ISM-11899,OA,2021-05-21 09:26:00,2021-05-21 09:26:00,2021-05-21 17:50:00,2021-05-21 17:50:00,2021-05-21 17:50:00,,-26.8717,-65.2203,A11,Proveedor,Huawei,OA,OA Completado,2021-05-21 17:42:58,2021-05-19 10:22:44,2021-05-19 10:37:37,2021-05-21 17:41:15,2021-05-21 17:42:04,2021-05-21 17:42:58,2021-05-14
23964,A11-S162,La Reduccion,4T4R,Sin Asignar,Sin Asignar,Sin Asignar,TLREDU,MEDI,5698433,ISM-11901,OA,2021-08-26 07:57:59,2021-08-26 07:57:59,2021-09-30 10:25:59,2021-09-30 10:25:59,2021-09-30 10:27:00,,-26.9615,-65.3512,A11,Proveedor,Huawei,OA,OA Completado,2021-09-30 10:15:16,2021-08-26 01:48:15,2021-08-26 01:48:21,2021-08-26 01:50:37,2021-09-30 10:14:30,2021-09-30 10:15:16,2021-08-24
23965,A11-S213,Tucuman Autodromo,4T4R,Sin Asignar,Sin Asignar,Sin Asignar,TCAUTO,MEDI,5505277,ISM-11902,OA,2021-08-13 11:26:00,2021-08-13 11:26:00,2021-08-13 12:09:00,2021-08-13 12:09:00,2021-08-13 12:09:00,,-26.8324,-65.1774,A11,Proveedor,Huawei,OA,OA Completado,2021-08-13 12:20:11,2021-08-13 11:58:31,2021-08-13 11:58:37,2021-08-13 12:05:19,2021-08-13 12:16:13,2021-08-13 12:20:11,2021-07-31
23966,A11-S214,Tucuman Lince,4T4R,Sin Asignar,Sin Asignar,Sin Asignar,TCLINC,MEDI,,ISM-11903,OA,2021-06-22 09:42:00,2021-06-22 09:42:00,2021-06-22 10:56:00,2021-06-22 10:56:00,2021-06-25 13:50:59,,-26.8494,-65.1846,A11,Proveedor,Huawei,OA,OA Completado,2021-06-25 13:40:34,2021-06-21 22:44:20,2021-06-21 22:44:31,2021-06-21 22:46:10,2021-06-21 22:47:02,2021-06-25 13:40:34,2021-06-18
23967,A11-S237,Tucuman Alem,4T4R,Sin Asignar,Sin Asignar,Sin Asignar,TCALEM,MEDI,,ISM-11904,OA,2021-05-11 11:08:00,2021-05-11 11:08:00,2021-05-11 11:19:00,2021-05-11 11:19:59,2021-05-14 15:00:00,,-26.8535,-65.225,A11,Proveedor,Huawei,OA,OA Completado,2021-05-14 14:48:39,2021-05-11 11:15:17,2021-05-11 11:15:26,2021-05-11 11:21:06,2021-05-11 11:21:51,2021-05-14 14:48:39,2021-05-03
23968,A11-S288,Ingenio La Florida,4T4R,Sin Asignar,Sin Asignar,Sin Asignar,TIFLDA,MEDI,,ISM-11905,OA,2021-05-15 00:54:00,2021-05-15 00:54:00,2021-05-20 10:50:59,2021-05-20 10:50:59,2021-05-20 10:50:59,,-26.8156,-65.0827,A11,Proveedor,Huawei,OA,OA Completado,2021-05-20 10:50:56,2021-05-20 10:46:56,2021-05-20 10:47:05,2021-05-20 10:49:29,2021-05-20 10:50:20,2021-05-20 10:50:56,2021-05-11
23969,A11-S374,Tucuman El Corte Alderetes,4T4R,Sin Asignar,Sin Asignar,Sin Asignar,TCCALD,MEDI,,ISM-11906,OA,2021-05-27 18:09:00,2021-05-27 18:09:00,2021-05-28 16:32:59,2021-05-28 16:34:00,2021-05-31 15:51:59,,-26.8276,-65.1494,A11,Proveedor,Huawei,OA,OA Completado,2021-05-31 15:38:18,2021-05-24 20:27:02,2021-05-26 13:55:53,2021-05-26 13:57:08,2021-05-26 13:58:00,2021-05-31 15:38:18,2021-05-21
23971,A11-S451,Termas de Rio Hondo 6,4T4R,Sin Asignar,Sin Asignar,Sin Asignar,GTERM6,MEDI,,ISM-11907,OA,2021-06-22 09:42:59,2021-06-22 09:42:59,2021-06-22 10:56:00,2021-06-22 10:56:00,2021-06-25 16:27:00,,-27.4867,-64.8627,A11,Proveedor,Huawei,OA,OA Completado,2021-06-25 16:18:20,2021-06-21 22:57:26,2021-06-21 22:57:33,2021-06-21 22:58:50,2021-06-21 22:59:40,2021-06-25 16:18:20,2021-06-15
23972,A11-S521,Tucuman El Colmenar 3,4T4R,Sin Asignar,Sin Asignar,Sin Asignar,TCCOL3,MEDI,5965152,ISM-11908,OA,2021-05-26 15:49:00,2021-05-26 15:49:00,2021-05-27 14:55:00,2021-05-27 14:55:59,2021-05-27 14:57:00,,-26.7939,-65.182,A11,Proveedor,Huawei,OA,OA Completado,2021-05-27 15:10:57,2021-05-20 16:58:13,2021-05-20 16:58:22,2021-05-20 16:59:35,2021-05-20 17:00:33,2021-05-27 15:10:57,2021-05-11
23973,A11-S529,Tucuman Alderetes 5,4T4R,Sin Asignar,Sin Asignar,Sin Asignar,TCALD5,MEDI,,ISM-11909,OA,2021-04-28 10:25:00,2021-04-28 10:25:00,2021-04-28 10:32:59,2021-04-30 17:42:59,2021-04-30 17:44:00,,-26.803,-65.1423,A11,PROVEEDOR,Huawei,OA,OA Completado,2021-05-07 19:47:30,2021-04-28 10:11:17,2021-04-28 10:11:31,2021-04-28 10:11:56,2021-05-07 19:47:09,2021-05-07 19:47:30,2021-04-26
23974,A11-S572,Tucuman Barrio San Felipe 3,4T4R,Sin Asignar,Sin Asignar,Sin Asignar,TCBSF3,MEDI,,ISM-11910,OA,2021-06-08 10:07:00,2021-06-08 10:07:00,2021-06-08 19:27:59,2021-06-08 19:27:59,2021-06-14 08:37:59,,-26.8566,-65.2613,A11,Proveedor,Huawei,OA,OA Completado,2021-06-14 08:27:28,2021-06-08 19:13:03,2021-06-08 19:13:08,2021-06-08 19:14:10,2021-06-08 19:15:02,2021-06-14 08:27:28,2021-06-04
23976,A12-S065,Monte Quemado Centro,4T4R,Sin Asignar,Sin Asignar,Sin Asignar,GMONTC,MEDI,5078743,ISM-11912,OA,2021-07-26 15:18:59,2021-07-26 15:18:59,2021-08-03 09:24:00,2021-08-03 09:24:00,2021-08-31 16:41:00,,-25.8035,-62.833,A12,Proveedor,Huawei,OA,OA Completado,2021-08-31 16:29:05,2021-07-16 18:14:14,2021-07-16 18:14:23,2021-07-16 18:15:37,2021-08-31 16:28:29,2021-08-31 16:29:05,
23978,A21-S020,Cafayate,4T4R,Sin Asignar,Sin Asignar,Sin Asignar,ACAFAY,MEDI,,ISM-11962,OA,2021-06-22 09:40:00,2021-06-22 09:40:00,2021-06-22 10:57:00,2021-06-22 10:57:00,2021-06-25 17:28:59,,-26.0692,-65.9766,A21,Proveedor,Huawei,OA,OA Completado,2021-06-25 17:18:27,2021-06-21 22:32:17,2021-06-21 22:32:56,2021-06-21 22:34:59,2021-06-21 22:36:10,2021-06-25 17:18:27,2021-06-15
23979,A21-S051,Humahuaca,4T4R,Sin Asignar,Sin Asignar,Sin Asignar,YHUMAU,MEDI,4978478,ISM-11963,OA,2021-07-26 13:41:59,2021-07-26 13:41:59,2021-07-26 13:50:00,2021-07-26 13:50:00,2021-08-23 09:45:00,,-23.2042,-65.3506,A21,Proveedor,Huawei,OA,OA Completado,2021-08-23 09:34:37,2021-07-17 19:27:47,2021-07-17 19:28:00,2021-07-17 19:29:47,2021-08-23 09:34:02,2021-08-23 09:34:37,
23980,A21-S055,La Quiaca,4T4R,Sin Asignar,Sin Asignar,Sin Asignar,YQUIAC,MEDI,4978433,ISM-11964,OA,2021-07-06 16:43:00,2021-07-06 16:43:00,2021-07-07 17:51:59,2021-07-07 17:51:59,2021-07-14 17:24:00,,-22.1035,-65.5995,A21,Proveedor,Huawei,OA,OA Completado,2021-07-14 17:13:10,2021-07-07 17:40:08,2021-07-07 17:40:16,2021-07-07 17:41:27,2021-07-07 17:41:57,2021-07-14 17:13:10,2021-06-29
23981,A21-S144,Perico 2,4T4R,Sin Asignar,Sin Asignar,Sin Asignar,YPERI2,MEDI,,ISM-11965,OA,2021-06-09 11:15:59,2021-06-09 11:15:59,2021-06-11 17:10:00,2021-06-11 17:10:00,2021-06-16 11:15:00,,-24.3881,-65.1169,A21,Proveedor,Huawei,OA,OA Completado,2021-06-16 11:04:27,2021-06-05 17:26:56,2021-06-05 17:27:04,2021-06-05 17:31:44,2021-06-16 11:03:57,2021-06-16 11:04:27,2021-06-02
23982,A21-S177,Rosario De Lerma 2,4T4R,Sin Asignar,Sin Asignar,Sin Asignar,ALERM2,MEDI,,ISM-11966,OA,2021-06-07 07:50:59,2021-06-07 07:50:59,2021-06-11 17:10:59,2021-06-11 17:10:59,2021-06-14 08:32:00,,-24.9752,-65.5865,A21,Proveedor,Huawei,OA,OA Completado,2021-06-14 08:21:55,2021-06-04 19:52:28,2021-06-04 19:52:53,2021-06-04 19:54:57,2021-06-14 08:21:25,2021-06-14 08:21:55,2021-06-01
23984,A21-S331,La Quiaca 2,4T4R,Sin Asignar,Sin Asignar,Sin Asignar,YQUIA2,MEDI,5078573,ISM-11968,OA,2021-07-14 10:48:00,2021-07-14 10:48:00,2021-07-14 11:35:59,2021-07-14 11:35:59,2021-07-22 17:57:00,,-22.1137,-65.5959,A21,Proveedor,Huawei,OA,OA Completado,2021-07-22 17:46:34,2021-07-14 10:33:13,2021-07-14 10:33:20,2021-07-14 10:34:49,2021-07-22 17:46:04,2021-07-22 17:46:34,2021-07-09
23985,A21-S368,San Pedro 7,4T4R,Sin Asignar,Sin Asignar,Sin Asignar,YSPDR7,MEDI,,ISM-11969,OA,2021-06-29 15:04:00,2021-06-29 15:04:00,2021-06-29 15:51:59,2021-06-29 15:53:00,2021-07-01 16:25:00,,,,,PROVEEDOR,Huawei,OA,OA Completado,2021-07-01 16:13:30,2021-06-29 11:14:28,2021-06-29 11:15:03,2021-06-29 15:41:43,2021-06-29 15:42:07,2021-07-01 16:13:30,2021-06-26
23986,A21-S380,Guemes Ferrocarril 4,4T4R,Sin Asignar,Sin Asignar,Sin Asignar,AGUEF4,MEDI,,ISM-11970,OA,2021-06-09 08:14:00,2021-06-09 08:14:00,2021-06-14 09:02:00,2021-06-14 09:02:00,2021-10-05 09:45:59,,-24.668,-65.0505,A21,Proveedor,Huawei,OA,OA Completado,2021-10-05 09:35:13,2021-06-14 08:52:04,2021-06-14 08:52:11,2021-10-05 09:33:27,2021-10-05 09:34:27,2021-10-05 09:35:13,
23987,A21-S532,Tilcalra Central Teco,4T4R,Sin Asignar,Sin Asignar,Sin Asignar,YTCTEC,MEDI,,ISM-11971,OA,2021-11-01 15:38:59,2021-11-01 15:38:59,2021-11-11 11:17:59,2021-11-11 11:17:59,2021-11-11 11:17:59,,-23.5774,-65.3956,A21,Proveedor,Huawei,OA,OA Completado,2021-11-11 11:10:25,2021-11-11 11:06:39,2021-11-11 11:06:52,2021-11-11 11:08:07,2021-11-11 11:09:07,2021-11-11 11:10:25,
23988,A23-S001,Hipolito Yrigoyen,4T4R,Sin Asignar,Sin Asignar,Sin Asignar,AHIPOL,MEDI,,ISM-11976,OA,2021-05-21 18:04:00,2021-05-21 18:04:00,2021-05-21 18:04:59,2021-05-22 20:12:59,2021-05-30 11:48:00,,-23.2446,-64.2765,A23,Proveedor,Huawei,OA,OA Completado,2021-05-30 11:40:52,2021-05-21 16:49:37,2021-05-21 16:49:46,2021-05-22 20:02:03,2021-05-26 13:20:51,2021-05-30 11:40:52,2021-05-12
23990,A23-S018,Oran 2,4T4R,Sin Asignar,Sin Asignar,Sin Asignar,ASRNOB,MEDI,,ISM-11978,OA,2021-06-22 11:14:00,2021-06-22 11:14:00,2021-06-25 17:46:59,2021-06-25 17:46:59,2021-06-25 17:48:00,,-23.1319,-64.3193,A23,Proveedor,Huawei,OA,OA Completado,2021-06-28 12:44:55,2021-06-18 18:07:54,2021-06-18 18:08:01,2021-06-28 12:40:46,2021-06-28 12:43:53,2021-06-28 12:44:55,2021-06-10
23994,A23-S045,Oran 4,4T4R,Sin Asignar,Sin Asignar,Sin Asignar,ASRNO4,MEDI,5078534,ISM-11982,OA,2021-07-21 11:35:00,2021-07-21 11:35:00,2021-07-21 16:59:00,2021-07-21 16:59:00,2021-07-27 16:07:59,,-23.1403,-64.3124,A23,Proveedor,Huawei,OA,OA Completado,2021-07-27 15:55:05,2021-07-21 09:51:06,2021-07-21 09:51:14,2021-07-21 09:53:20,2021-07-21 09:54:15,2021-07-27 15:55:05,2021-07-17
23995,A23-S052,Salvador Mazza 2,4T4R,Sin Asignar,Sin Asignar,Sin Asignar,AMAZZ2,MEDI,,ISM-11983,OA,2021-06-08 09:53:00,2021-06-08 09:53:00,2021-06-08 19:36:59,2021-06-08 19:36:59,2021-06-14 08:44:00,,-22.0579,-63.699,A23,Proveedor,Huawei,OA,OA Completado,2021-06-14 08:36:25,2021-06-14 08:33:12,2021-06-14 08:33:24,2021-06-14 08:34:47,2021-06-14 08:35:44,2021-06-14 08:36:25,2021-05-27
23996,A23-S090,Oran 13,4T4R,Sin Asignar,Sin Asignar,Sin Asignar,ASRN13,MEDI,,ISM-11984,OA,2021-05-11 11:12:59,2021-05-11 11:12:59,2021-05-11 11:19:00,2021-05-11 11:19:59,2021-05-14 14:35:59,,-23.1219,-64.3252,A23,Proveedor,Huawei,OA,OA Completado,2021-05-14 19:48:47,2021-05-12 15:31:28,2021-05-12 15:31:35,2021-05-12 15:33:04,2021-05-12 15:33:53,2021-05-14 19:48:47,2021-05-03
23997,A23-S103,General Mosconi Central,4T4R,Sin Asignar,Sin Asignar,Sin Asignar,AMTECO,MEDI,,ISM-11985,OA,2021-05-15 00:51:00,2021-05-15 00:51:00,2021-05-18 18:11:00,2021-05-18 18:11:59,2021-05-18 18:11:59,,-22.5962,-63.8087,A23,Proveedor,Huawei,OA,OA Completado,2021-05-18 18:01:16,2021-05-14 19:52:30,2021-05-14 19:52:35,2021-05-14 19:55:56,2021-05-14 19:57:03,2021-05-18 18:01:16,2021-05-07
23998,A23-S118,Oran 15,4T4R,Sin Asignar,Sin Asignar,Sin Asignar,ASRN15,MEDI,,ISM-11986,OA,2021-05-18 10:57:00,2021-05-18 10:57:00,2021-05-18 13:07:59,2021-05-18 13:07:59,2021-05-21 13:18:00,,,,,Proveedor,Huawei,OA,OA Completado,2021-05-21 13:08:28,2021-05-18 10:02:37,2021-05-18 10:02:43,2021-05-18 10:03:48,2021-05-21 13:07:51,2021-05-21 13:08:28,2021-05-09
24031,A03-S313,Villa Cura Brochero,4T4R,Sin Asignar,Sin Asignar,Sin Asignar,XVCBRO,MEDI,,ISM-11992,OA,2021-05-26 09:45:59,2021-05-26 15:13:00,2021-05-26 18:18:59,2021-05-27 10:14:59,2021-05-31 16:29:00,,-31.6999,-65.0276,A03,Proveedor,Huawei,OA,OA Completado,2021-05-31 16:22:17,2021-05-24 19:53:25,2021-05-26 13:46:41,2021-05-26 13:49:19,2021-05-28 16:49:38,2021-05-31 16:22:17,2021-05-18
24036,A10-S056,Belen Centro,4T4R,Sin Asignar,Sin Asignar,Sin Asignar,KBELCE,MEDI,5489437,ISM-11997,OA,2021-08-11 09:15:59,2021-08-11 12:56:00,2021-08-11 13:00:00,2021-08-25 17:24:59,2021-08-26 02:12:59,,-27.6589,-67.0191,A10,Proveedor,Huawei,OA,OA Completado,2021-08-26 02:00:40,2021-08-11 01:06:23,2021-08-11 01:06:32,2021-08-11 01:11:54,2021-08-17 08:55:43,2021-08-26 02:00:40,
24037,A10-S099,Miraflores,4T4R,Sin Asignar,Sin Asignar,Sin Asignar,KMIRAF,MEDI,6345931,ISM-14467,OA,2021-10-20 07:50:59,2021-10-20 07:50:59,2021-10-20 16:52:59,2021-10-20 16:52:59,2021-10-22 16:48:00,,-28.5916,-65.898,A10,MOP,Huawei,OA,OA Completado,2021-10-22 16:28:15,2021-10-19 16:08:15,2021-10-19 16:08:39,2021-10-19 16:11:32,2021-10-20 16:45:38,2021-10-22 16:28:15,
24043,A11-S121,Concepcion 2,4T4R,Sin Asignar,Sin Asignar,Sin Asignar,TCONCB,MEDI,5078336,ISM-12003,OA,2021-07-22 12:11:00,2021-07-22 12:22:00,2021-07-22 12:24:00,2021-07-22 19:27:59,2021-07-24 19:39:00,,-27.3473,-65.5828,A11,Proveedor,Huawei,OA,OA Completado,2021-07-24 19:27:53,2021-07-22 11:26:40,2021-07-22 11:26:55,2021-07-22 11:28:34,2021-07-22 11:30:47,2021-07-24 19:27:53,2021-07-13
24044,A11-S204,Concepcion Ingenio Corona,4T4R,Sin Asignar,Sin Asignar,Sin Asignar,TICORO,MEDI,5078475,ISM-12004,OA,2021-07-26 13:25:59,2021-08-03 14:08:59,2021-08-17 09:13:59,2021-08-17 12:45:00,2021-09-29 16:38:00,,-27.3582,-65.606,A11,Proveedor,Huawei,OA,OA Completado,2021-09-29 16:25:36,2021-07-26 12:02:38,2021-07-26 12:02:45,2021-07-26 12:05:04,2021-07-26 12:05:48,2021-09-29 16:25:36,
24049,A12-S024,Tintina,4T4R,Sin Asignar,Sin Asignar,Sin Asignar,GTINTI,MEDI,5284603,ISM-12009,OA,2021-07-26 09:31:59,2021-07-26 12:47:00,2021-07-26 12:47:59,2021-07-26 17:30:59,2021-10-18 11:39:59,,-27.0221,-62.7075,A12,Proveedor,Huawei,OA,OA Completado,2021-10-18 11:28:10,2021-07-24 20:25:27,2021-07-24 20:25:33,2021-07-24 20:26:50,2021-07-24 20:28:00,2021-10-18 11:28:10,
24056,A21-S123,Ledesma Norte,4T4R,Sin Asignar,Sin Asignar,Sin Asignar,YLENOR,MEDI,5686565,ISM-12015,OA,2021-08-27 11:42:59,2021-08-27 16:11:00,2021-08-27 16:12:59,2021-08-30 09:31:00,2021-09-02 15:20:00,,-23.8066,-64.7904,A21,Proveedor,Huawei,OA,OA Completado,2021-09-02 15:13:27,2021-08-27 10:03:01,2021-08-27 10:03:09,2021-08-27 10:04:18,2021-08-30 08:13:08,2021-09-02 15:13:27,2022-08-23
24057,A21-S163,San Pedro Jujuy 3,4T4R,Sin Asignar,Sin Asignar,Sin Asignar,YSPDRC,MEDI,5699823,ISM-12016,OA,2021-08-31 08:55:59,2021-08-31 12:58:59,2021-08-31 13:02:00,2021-09-16 18:06:59,2021-09-17 11:01:59,,-24.225,-64.8602,A21,Proveedor,Huawei,OA,OA Completado,2021-09-16 09:32:15,2021-08-30 17:37:27,2021-08-30 17:37:35,2021-08-30 17:38:46,2021-08-30 17:39:52,2021-09-16 09:32:15,2021-08-26
24058,A21-S243,Humahuaca 3,4T4R,Sin Asignar,Sin Asignar,Sin Asignar,YHUMA3,MEDI,5278435,ISM-12017,OA,2021-07-22 12:13:00,2021-07-22 14:51:59,2021-07-22 14:57:00,2021-07-22 19:32:59,2021-07-26 12:00:00,,,,,Proveedor,Huawei,OA,OA Completado,2021-07-26 11:48:08,2021-07-22 10:34:38,2021-07-22 10:34:44,2021-07-22 10:35:50,2021-07-22 10:39:31,2021-07-26 11:48:08,2021-07-19
24059,A21-S246,Humahuaca Acceso Norte,4T4R,Sin Asignar,Sin Asignar,Sin Asignar,YHUMAN,MEDI,5331799,ISM-12018,OA,2021-07-28 15:22:00,2021-07-28 15:49:00,2021-07-28 15:49:59,2021-07-28 19:27:00,2021-08-03 13:57:59,,,,,Proveedor,Huawei,OA,OA Completado,2021-08-03 13:45:48,2021-07-28 13:53:26,2021-07-28 13:53:50,2021-07-28 13:54:56,2021-07-28 13:56:16,2021-08-03 13:45:48,2021-07-23
24061,A04-S012,Casilda,4T4R,Sin Asignar,Sin Asignar,Sin Asignar,ZCASIL,LITO,,ISM-11887,OA,2021-06-02 08:05:00,2021-06-02 08:05:00,2021-06-02 11:03:59,2021-06-02 11:03:59,2021-06-04 16:16:59,,-33.0471,-61.1678,A04,MOP,Nokia,OA,OA Completado,2021-06-04 16:03:13,2021-06-02 10:53:08,2021-06-02 10:53:26,2021-06-02 10:54:28,2021-06-02 10:54:55,2021-06-04 16:03:13,2021-05-18
24065,A04-S201,Fray Luis Beltran,4T4R,Sin Asignar,Sin Asignar,Sin Asignar,ZFLBEL,LITO,,ISM-11891,OA,2021-05-11 09:51:59,2021-05-11 09:51:59,2021-05-12 17:42:59,2021-05-12 17:42:59,2021-05-14 11:15:59,,-32.784,-60.7372,A04,MOP,Nokia,OA,OA Completado,2021-05-14 11:02:39,2021-05-10 14:50:31,2021-05-10 14:51:22,2021-05-10 14:53:21,2021-05-12 17:29:44,2021-05-14 11:02:39,2021-05-03
24066,A05-S012,Victoria,4T4R,Sin Asignar,Sin Asignar,Sin Asignar,EVICTO,LITO,,ISM-11893,OA,2021-06-16 16:16:59,2021-06-16 16:16:59,2021-06-17 10:47:00,2021-06-17 10:48:00,2021-06-24 15:18:00,,-32.6191,-60.1577,A05,MOP,Nokia,OA,OA Completado,2021-06-24 15:06:20,2021-06-16 17:54:48,2021-06-16 17:54:54,2021-06-17 10:37:16,2021-06-17 10:38:14,2021-06-24 15:06:20,2021-06-08
24067,A07-S328,San Javier 2,4T4R,Sin Asignar,Sin Asignar,Sin Asignar,ZSJAVB,LITO,,ISM-11894,OA,2021-04-20 11:48:00,2021-04-20 11:48:00,2021-04-21 10:21:00,2021-04-21 10:21:59,2021-04-22 09:24:00,,-30.5711,-59.9384,A07,MOP,Nokia,OA,OA Completado,2021-04-22 09:13:21,2021-04-21 10:13:47,2021-04-21 10:14:18,2021-04-21 10:16:25,2021-04-21 10:17:09,2021-04-22 09:13:21,2021-04-12
24078,A16-S020,Campo Largo,4T4R,Sin Asignar,Sin Asignar,Sin Asignar,HCMLRG,LITO,5147599,ISM-11924,OA,2021-07-27 10:03:00,2021-07-27 10:03:00,2021-07-27 18:04:59,2021-08-27 14:21:59,2021-08-27 14:23:00,,-26.8,-60.8417,A16,MOP,Nokia,OA,OA Completado,2021-09-06 08:19:10,2021-07-27 17:52:58,2021-07-27 17:53:05,2021-07-27 17:54:25,2021-09-06 08:18:13,2021-09-06 08:19:10,
24080,A16-S031,Roque Saenz Peña Facultad,4T4R,Sin Asignar,Sin Asignar,Sin Asignar,HRSFCL,LITO,5398470,ISM-11926,OA,2021-08-12 14:06:00,2021-08-12 14:06:00,2021-08-12 20:14:00,2021-08-12 20:15:00,2021-09-06 12:36:00,,-26.7983,-60.4469,A16,MOP,Nokia,OA,OA Completado,2021-09-06 12:21:56,2021-07-22 13:16:35,2021-07-22 13:17:16,2021-07-22 13:20:16,2021-07-22 13:21:11,2021-09-06 12:21:56,
24082,A16-S040,Villa Angela Norte,4T4R,Sin Asignar,Sin Asignar,Sin Asignar,HVANOR,LITO,,ISM-11928,OA,2021-06-11 17:01:59,2021-06-11 17:01:59,2021-06-11 17:03:00,2021-06-11 17:03:00,2021-06-18 09:11:59,,-27.5619,-60.7186,A16,MOP,Nokia,OA,OA Completado,2021-06-18 09:02:18,2021-06-18 08:59:34,2021-06-18 08:59:58,2021-06-18 09:01:07,2021-06-18 09:01:41,2021-06-18 09:02:18,2021-06-08
24086,A16-S067,Villa Angela Av. La Plata,4T4R,Sin Asignar,Sin Asignar,Sin Asignar,HVAALP,LITO,,ISM-11932,OA,2021-07-02 09:33:00,2021-07-02 09:33:00,2021-07-02 14:51:00,2021-07-02 14:51:59,2021-07-05 09:31:00,,,,,MOP,Nokia,OA,OA Completado,2021-07-05 09:46:56,2021-07-01 16:42:08,2021-07-01 16:42:24,2021-07-01 16:43:19,2021-07-01 16:43:58,2021-07-05 09:46:56,2021-06-29
24087,A16-S069,Roque Saenz Peña Av. Maipu,4T4R,Sin Asignar,Sin Asignar,Sin Asignar,HRSMAI,LITO,,ISM-11933,OA,2021-06-17 10:12:00,2021-06-17 10:12:00,2021-06-17 15:27:00,2021-06-17 15:27:59,2021-06-18 10:07:59,,-26.7797,-60.4517,A16,MOP,Nokia,OA,OA Completado,2021-06-18 09:58:01,2021-06-17 15:16:49,2021-06-17 15:17:14,2021-06-17 15:21:14,2021-06-17 15:21:59,2021-06-18 09:58:01,2021-06-13
24089,A16-S156,Roque Saenz Peña Funes,4T4R,Sin Asignar,Sin Asignar,Sin Asignar,HRSFNS,LITO,,ISM-11935,OA,2021-05-07 21:27:00,2021-05-07 21:27:00,2021-05-10 10:41:00,2021-05-10 10:41:59,2021-05-20 12:18:59,,-26.809,-60.4317,A16,MOP,Nokia,OA,OA Completado,2021-05-20 12:06:26,2021-05-07 19:52:52,2021-05-07 19:52:58,2021-05-07 19:53:39,2021-05-12 17:32:08,2021-05-20 12:06:26,2021-05-05
24093,A17-S020,Paso De La Patria,4T4R,Sin Asignar,Sin Asignar,Sin Asignar,WPPTRA,LITO,,ISM-11939,OA,2021-06-01 14:12:00,2021-06-01 14:12:00,2021-06-14 10:18:59,2021-06-14 10:20:00,2021-06-14 10:20:00,,-27.3179,-58.5782,A17,Proveedor,Nokia,OA,OA Completado,2021-06-28 13:03:23,2021-06-28 13:00:30,2021-06-28 13:00:47,2021-06-28 13:01:38,2021-06-28 13:02:42,2021-06-28 13:03:23,2021-05-27
24094,A17-S022,Machagai,4T4R,Sin Asignar,Sin Asignar,Sin Asignar,HMCHAG,LITO,,ISM-11940,OA,2021-06-11 08:06:59,2021-06-11 08:06:59,2021-06-11 12:00:59,2021-06-11 12:02:00,2021-06-14 09:36:00,,-26.9483,-60.0364,A17,MOP,Nokia,OA,OA Completado,2021-06-14 09:26:01,2021-06-10 17:40:52,2021-06-10 17:42:01,2021-06-11 11:50:46,2021-06-11 11:51:28,2021-06-14 09:26:01,2021-05-31
24095,A17-S104,Machagai Centro,4T4R,Sin Asignar,Sin Asignar,Sin Asignar,HMCHCT,LITO,,ISM-11941,OA,2021-05-19 09:08:00,2021-05-19 09:08:00,2021-05-19 09:26:00,2021-05-19 09:27:00,2021-05-19 09:27:59,,-26.9278,-60.0496,A17,MOP,Nokia,OA,OA Completado,2021-05-19 09:21:16,2021-05-19 09:18:28,2021-05-19 09:18:56,2021-05-19 09:19:48,2021-05-19 09:20:25,2021-05-19 09:21:16,2021-05-12
24096,A17-S142,Corrientes Serantes,4T4R,Sin Asignar,Sin Asignar,Sin Asignar,WCSRNT,LITO,,ISM-11942,OA,2021-04-21 12:58:59,2021-04-21 12:58:59,2021-04-21 13:45:59,2021-04-21 13:45:59,2021-04-23 09:18:59,,-27.5018,-58.8053,A17,MOP,Nokia,OA,OA Completado,2021-04-23 09:09:52,2021-04-21 13:35:33,2021-04-21 13:35:52,2021-04-21 13:36:55,2021-04-21 13:38:12,2021-04-23 09:09:52,2021-04-14
24097,A17-S228,Corrientes Club De Telefonos,4T4R,Sin Asignar,Sin Asignar,Sin Asignar,WCCTLF,LITO,,ISM-11943,OA,2021-04-09 09:22:00,2021-04-09 09:22:00,2021-04-09 09:29:59,2021-04-09 09:29:59,2021-04-12 15:58:59,,-27.4996,-58.815,A17,MOP,Nokia,OA,OA Completado,2021-04-12 15:49:55,2021-04-09 10:31:17,2021-04-09 10:31:43,2021-04-09 10:32:52,2021-04-09 10:33:47,2021-04-12 15:49:55,2021-03-31
24099,A17-S293,Machagai Calle Juncal,4T4R,Sin Asignar,Sin Asignar,Sin Asignar,HMCHJU,LITO,,ISM-11945,OA,2021-04-28 11:10:00,2021-04-28 11:10:00,2021-04-28 11:32:00,2021-04-28 11:33:00,2021-04-29 09:47:00,,,,,MOP,Nokia,OA,OA Completado,2021-04-29 09:36:57,2021-04-28 11:26:21,2021-04-28 11:27:01,2021-04-28 14:15:57,2021-04-28 14:16:41,2021-04-29 09:36:57,2021-04-27
24100,A17-S323,Resistencia Guemes Fontana,4T4R,Sin Asignar,Sin Asignar,Sin Asignar,HRGUFO,LITO,,ISM-11946,OA,2021-04-27 15:31:00,2021-04-27 15:31:00,2021-04-27 16:21:00,2021-04-27 16:21:00,2021-04-28 11:23:00,,-27.4234,-59.0181,A17,MOP,Nokia,OA,OA Completado,2021-04-28 11:13:45,2021-04-27 16:12:34,2021-04-27 16:12:52,2021-04-27 16:13:47,2021-04-27 16:14:21,2021-04-28 11:13:45,2021-04-22
24101,A18-S011,Candelaria,4T4R,Sin Asignar,Sin Asignar,Sin Asignar,ICNDLR,LITO,,ISM-11947,OA,2021-05-28 08:46:00,2021-05-28 08:46:00,2021-05-28 10:07:00,2021-05-28 10:07:00,2021-06-07 20:57:00,,-27.4681,-55.7397,A18,Proveedor,Nokia,OA,OA Completado,2021-06-07 20:45:53,2021-05-28 09:56:44,2021-05-28 09:57:05,2021-05-28 09:57:38,2021-05-28 09:58:06,2021-06-07 20:45:53,2021-05-13
24102,A18-S015,San Javier,4T4R,Sin Asignar,Sin Asignar,Sin Asignar,ISJVER,LITO,,ISM-11948,OA,2021-06-29 09:54:00,2021-06-29 09:54:00,2021-06-29 11:57:00,2021-06-29 11:57:00,2021-07-06 13:52:59,,-27.8733,-55.1356,A18,Proveedor,Nokia,OA,OA Completado,2021-07-07 18:12:03,2021-06-29 10:35:43,2021-06-29 10:36:02,2021-06-29 11:45:44,2021-06-29 11:46:30,2021-07-07 18:12:03,2021-06-17
24107,A19-S001,Eldorado Rep.,4T4R,Sin Asignar,Sin Asignar,Sin Asignar,IELDRP,LITO,,ISM-11953,OA,2021-06-18 08:06:00,2021-06-18 08:06:00,2021-06-22 09:38:59,2021-06-22 09:38:59,2021-07-01 08:59:00,,-26.3997,-54.6361,A19,Proveedor,Nokia,OA,OA Completado,2021-07-01 08:43:24,2021-06-18 11:52:15,2021-06-22 09:23:49,2021-06-22 09:24:21,2021-06-22 09:24:57,2021-07-01 08:43:24,2021-06-15
24114,A19-S072,Eldorado Av. Los Fundadores,4T4R,Sin Asignar,Sin Asignar,Sin Asignar,IELDFU,LITO,,ISM-11960,OA,2021-06-15 08:12:59,2021-06-15 08:12:59,2021-06-15 10:21:59,2021-06-15 10:21:59,2021-08-02 08:33:59,,-26.4251,-54.6674,A19,Proveedor,Nokia,OA,OA Completado,2021-07-31 17:04:36,2021-06-22 09:21:19,2021-06-22 09:21:31,2021-06-22 09:22:00,2021-07-31 17:04:11,2021-07-31 17:04:36,2021-06-07
24144,A14-S083,Goya Av. Caa Guazu,4T4R,Sin Asignar,Sin Asignar,Sin Asignar,WGYCAA,LITO,,ISM-11919,OA,2021-04-23 12:47:59,2021-04-23 12:47:59,2021-04-23 17:12:00,2021-04-23 17:14:00,2021-04-26 16:34:00,,,,,MOP,Nokia,OA,OA Completado,2021-04-26 16:57:35,2021-04-23 17:03:55,2021-04-23 17:04:12,2021-04-23 17:05:14,2021-04-23 17:05:49,2021-04-26 16:57:35,2021-04-19
24145,A19-S037,Eldorado Puerto,4T4R,Sin Asignar,Sin Asignar,Sin Asignar,IELDPT,LITO,,ISM-11958,OA,2021-06-29 09:49:59,2021-06-29 09:49:59,2021-06-29 10:21:00,2021-06-29 10:21:59,2021-06-30 09:24:00,,-26.4078,-54.6469,A19,MOP,Nokia,OA,OA Completado,2021-06-30 09:13:07,2021-06-29 10:18:52,2021-06-29 10:19:12,2021-06-29 10:21:30,2021-06-29 10:22:38,2021-06-30 09:13:07,2021-06-22
24146,A14-S082,Goya Av. Del Trabajo,4T4R,Sin Asignar,Sin Asignar,Sin Asignar,WGYTRA,LITO,,ISM-11918,OA,2021-04-27 08:10:00,2021-04-27 08:10:00,2021-04-27 10:09:59,2021-04-27 10:09:59,2021-04-27 16:12:59,,-29.1681,-59.2561,A14,MOP,Nokia,OA,OA Completado,2021-04-27 16:02:34,2021-04-27 10:46:14,2021-04-27 10:46:40,2021-04-27 10:47:38,2021-04-27 10:48:25,2021-04-27 16:02:34,2021-04-25
24147,A18-S259,Leandro N. Alem Av. San Martin,4T4R,Sin Asignar,Sin Asignar,Sin Asignar,ILNASM,LITO,,ISM-11952,OA,2021-06-17 08:32:00,2021-06-17 08:32:00,2021-06-17 14:55:59,2021-06-17 14:55:59,2021-06-18 09:35:00,,,,,MOP,Nokia,OA,OA Completado,2021-06-18 09:23:14,2021-06-17 14:46:40,2021-06-17 14:47:10,2021-06-17 14:49:33,2021-06-17 14:52:54,2021-06-18 09:23:14,2021-06-11
24148,A22-S005,Herradura,4T4R,Sin Asignar,Sin Asignar,Sin Asignar,PHERDU,LITO,,ISM-11972,OA,2021-07-28 11:12:59,2021-07-28 11:12:59,2021-07-30 17:30:00,2021-07-30 17:30:59,2021-07-31 09:31:59,,-26.4854,-58.3116,A22,MOP,Nokia,OA,OA Completado,2021-07-31 09:43:23,2021-07-29 16:22:43,2021-07-29 16:22:48,2021-07-29 16:23:38,2021-07-31 08:37:17,2021-07-31 09:43:23,2021-07-26
24149,A14-S165,Goya Calle Peru,4T4R,Sin Asignar,Sin Asignar,Sin Asignar,WGYPRU,LITO,,ISM-11920,OA,2021-05-31 17:12:59,2021-05-31 17:12:59,2021-06-01 10:02:00,2021-06-01 10:02:00,2021-06-02 09:20:00,,,,,MOP,Nokia,OA,OA Completado,2021-06-02 09:09:52,2021-06-01 09:52:04,2021-06-01 09:52:32,2021-06-01 09:53:47,2021-06-01 09:54:34,2021-06-02 09:09:52,2021-05-28
24150,A18-S151,San Javier Rotonda,4T4R,Sin Asignar,Sin Asignar,Sin Asignar,ISJVRT,LITO,,ISM-11951,OA,2021-06-04 08:08:59,2021-06-04 08:08:59,2021-06-04 11:48:59,2021-06-04 11:48:59,2021-06-09 11:01:59,,,,,MOP,Nokia,OA,OA Completado,2021-06-09 10:53:26,2021-06-04 11:39:30,2021-06-04 11:39:50,2021-06-04 11:42:24,2021-06-09 10:52:37,2021-06-09 10:53:26,2021-06-01
24151,A17-S017,Nuesta Señora De Caa Cati,4T4R,Sin Asignar,Sin Asignar,Sin Asignar,WCCATI,LITO,,ISM-11937,OA,2021-06-04 14:15:59,2021-06-04 14:15:59,2021-06-04 16:05:00,2021-06-04 16:05:00,2021-06-11 09:42:00,,-27.7502,-57.6239,A17,MOP,Nokia,OA,OA Completado,2021-06-11 09:30:14,2021-06-04 15:59:14,2021-06-04 15:59:38,2021-06-04 16:00:47,2021-06-04 16:01:22,2021-06-11 09:30:14,2021-06-01
24152,A14-S006,Gdor. Juan E. Martinez,4T4R,Sin Asignar,Sin Asignar,Sin Asignar,WGRMRZ,LITO,6209784,ISM-11913,OA,2021-09-30 08:03:59,2021-09-30 08:03:59,2021-09-30 10:34:59,2021-09-30 10:36:00,2021-10-15 11:15:00,,-28.9122,-58.9364,A14,MOP,Nokia,OA,OA Completado,2021-10-15 11:01:57,2021-10-01 17:08:50,2021-10-01 17:09:32,2021-10-01 17:10:36,2021-10-01 17:11:20,2021-10-15 11:01:57,
24153,A16-S044,Rbs Las Breñas Sur T.P.,4T4R,Sin Asignar,Sin Asignar,Sin Asignar,HBRSUR,LITO,,ISM-11929,OA,2021-06-16 08:15:59,2021-06-16 08:15:59,2021-06-16 09:06:00,2021-06-16 09:06:00,2021-06-18 08:46:59,,-27.0937,-61.0941,A16,MOP,Nokia,OA,OA Completado,2021-06-18 08:33:04,2021-06-16 08:56:37,2021-06-16 08:57:02,2021-06-16 08:58:08,2021-06-16 08:58:46,2021-06-18 08:33:04,2021-06-01
24155,A19-S025,Puerto Piray,4T4R,Sin Asignar,Sin Asignar,Sin Asignar,IPIRAY,LITO,,ISM-11957,OA,2021-07-05 08:24:59,2021-07-05 08:24:59,2021-07-12 14:48:59,2021-07-12 14:48:59,2021-07-12 14:48:59,,-26.47,-54.7111,A19,MOP,Nokia,OA,OA Completado,2021-07-12 14:40:26,2021-07-12 14:37:38,2021-07-12 14:37:55,2021-07-12 14:38:59,2021-07-12 14:39:39,2021-07-12 14:40:26,2021-06-30
24156,A14-S053,Goya Barrios Este,4T4R,Sin Asignar,Sin Asignar,Sin Asignar,WGYBAE,LITO,,ISM-11917,OA,2021-07-16 11:30:00,2021-07-16 11:30:00,2021-07-16 16:14:59,2021-07-16 16:16:00,2021-07-19 11:24:59,,-29.1507,-59.2478,A14,MOP,Nokia,OA,OA Completado,2021-07-19 11:14:26,2021-07-16 16:05:23,2021-07-16 16:05:43,2021-07-16 16:06:43,2021-07-16 16:07:31,2021-07-19 11:14:26,2021-07-13
24157,A14-S034,Lavalle,4T4R,Sin Asignar,Sin Asignar,Sin Asignar,WLVLLE,LITO,,ISM-11916,OA,2021-06-17 10:00:59,2021-06-17 10:00:59,2021-06-17 14:33:59,2021-06-17 14:35:00,2021-06-18 09:51:00,,-29.019,-59.1716,A14,MOP,Nokia,OA,OA Completado,2021-06-18 09:41:12,2021-06-17 14:24:00,2021-06-17 14:24:36,2021-06-17 14:25:39,2021-06-17 14:26:15,2021-06-18 09:41:12,2021-06-14
24158,A16-S055,Juan Jose Castelli Oeste,4T4R,Sin Asignar,Sin Asignar,Sin Asignar,HJJCOE,LITO,,ISM-11931,OA,2021-07-02 09:31:00,2021-07-02 09:31:00,2021-07-02 09:33:59,2021-07-02 09:36:59,2021-07-12 14:39:59,,-25.9396,-60.6402,A16,MOP,Nokia,OA,OA Completado,2021-07-12 14:28:46,2021-07-02 09:27:36,2021-07-02 09:27:56,2021-07-02 09:29:26,2021-07-02 09:30:13,2021-07-12 14:28:46,2021-06-29
24159,A17-S015,Santa Rosa,4T4R,Sin Asignar,Sin Asignar,Sin Asignar,WSROSA,LITO,5000650,ISM-11936,OA,2021-07-14 08:21:00,2021-07-14 08:21:00,2021-07-14 09:49:00,2021-07-19 12:58:00,2021-07-22 10:45:59,,-28.2672,-58.125,A17,MOP,Nokia,OA,OA Completado,2021-07-22 10:34:48,2021-07-19 12:47:01,2021-07-19 12:47:30,2021-07-19 12:49:01,2021-07-19 12:50:01,2021-07-22 10:34:48,2021-07-06
24160,A18-S058,Colonia Apostoles,4T4R,Sin Asignar,Sin Asignar,Sin Asignar,ICLAPS,LITO,4919940,ISM-11949,OA,2021-07-16 11:33:00,2021-07-16 11:33:00,2021-07-16 18:24:00,2021-07-19 12:56:00,2021-07-22 12:26:00,,-27.9115,-55.8072,A18,MOP,Nokia,OA,OA Completado,2021-07-22 12:14:29,2021-07-16 18:12:18,2021-07-16 18:12:25,2021-07-16 18:13:44,2021-07-19 12:43:36,2021-07-22 12:14:29,2021-07-13
24161,A22-S020,Pirane,4T4R,Sin Asignar,Sin Asignar,Sin Asignar,PIRANE,LITO,5452802,ISM-11973,OA,2021-08-13 16:34:59,2021-08-13 16:34:59,2021-08-13 17:05:00,2021-08-14 20:59:00,2021-08-18 20:55:59,,-25.7306,-59.1069,A22,MOP,Nokia,OA,OA Completado,2021-09-02 09:17:19,2021-08-13 17:38:59,2021-08-13 17:39:21,2021-08-14 20:46:43,2021-08-14 20:47:29,2021-09-02 09:17:19,
24162,A19-S012,Montecarlo,4T4R,Sin Asignar,Sin Asignar,Sin Asignar,IMNTCR,LITO,,ISM-11954,OA,2021-07-08 09:09:00,2021-07-08 09:09:00,2021-07-12 15:00:59,2021-07-12 15:02:00,2021-07-12 15:02:00,,-26.5686,-54.7658,A19,MOP,Nokia,OA,OA Completado,2021-07-12 14:54:01,2021-07-12 14:50:52,2021-07-12 14:51:16,2021-07-12 14:52:24,2021-07-12 14:53:13,2021-07-12 14:54:01,2021-07-05
24163,A14-S028,Goya Sur,4T4R,Sin Asignar,Sin Asignar,Sin Asignar,WGYSUR,LITO,,ISM-11915,OA,2021-06-29 09:51:00,2021-06-29 09:51:00,2021-06-29 10:20:00,2021-06-29 10:21:00,2021-06-30 09:11:00,,-29.1583,-59.2638,A14,MOP,Nokia,OA,OA Completado,2021-06-30 09:00:18,2021-06-29 10:12:19,2021-06-29 10:12:39,2021-06-29 10:13:54,2021-06-29 10:16:09,2021-06-30 09:00:18,2021-06-22
24164,A16-S009,Juan Jose Castelli,4T4R,Sin Asignar,Sin Asignar,Sin Asignar,HJJCST,LITO,,ISM-11922,OA,2021-07-22 09:56:00,2021-07-22 09:56:00,2021-07-22 10:02:00,2021-07-22 10:03:00,2021-08-02 08:57:00,,-25.9464,-60.6243,A16,MOP,Nokia,OA,OA Completado,2021-07-31 10:38:47,2021-07-21 16:42:12,2021-07-21 16:42:41,2021-07-22 09:54:17,2021-07-22 09:55:00,2021-07-31 10:38:47,2021-07-18
24165,A16-S033,Santa Sylvina II,4T4R,Sin Asignar,Sin Asignar,Sin Asignar,HSSYLV,LITO,,ISM-11927,OA,2021-07-14 09:15:00,2021-07-14 09:15:00,2021-07-14 17:41:00,2021-07-14 17:42:00,2021-07-14 17:42:59,,-27.8463,-61.1297,A16,MOP,Nokia,OA,OA Completado,2021-07-14 17:35:50,2021-07-14 17:33:01,2021-07-14 17:33:09,2021-07-14 17:34:20,2021-07-14 17:35:04,2021-07-14 17:35:50,2021-07-06
24166,A17-S291,Concepcion Centro II,4T4R,Sin Asignar,Sin Asignar,Sin Asignar,WCNPC2,LITO,5773739,ISM-11944,OA,2021-09-02 12:13:00,2021-09-02 12:13:00,2021-09-02 13:25:00,2021-09-03 10:14:00,2021-09-20 08:21:59,,-28.3917,-57.8864,A17,MOP,Nokia,OA,OA Completado,2021-09-20 08:22:19,2021-09-02 14:56:41,2021-09-02 14:56:47,2021-09-02 14:58:02,2021-09-03 10:00:45,2021-09-20 08:22:19,
24167,A22-S022,Laguna Blanca,4T4R,Sin Asignar,Sin Asignar,Sin Asignar,PLBLNC,LITO,5530305,ISM-11974,OA,2021-08-27 14:03:59,2021-08-27 14:03:59,2021-08-27 15:45:00,2021-08-27 15:45:59,2021-09-02 08:30:59,,-25.1308,-58.245,A22,MOP,Nokia,OA,OA Completado,2021-09-02 10:22:30,2021-08-27 15:35:32,2021-08-27 15:35:58,2021-08-30 20:02:20,2021-08-30 20:02:51,2021-09-02 10:22:30,
24168,A19-S022,Jardin Lucia,4T4R,Sin Asignar,Sin Asignar,Sin Asignar,IJAMRC,LITO,5133819,ISM-11956,OA,2021-07-30 10:56:00,2021-07-30 10:56:00,2021-07-30 17:01:00,2021-07-30 17:01:59,2021-08-03 11:44:00,,-27.0453,-55.2289,A19,MOP,Nokia,OA,OA Completado,2021-08-03 11:32:17,2021-07-30 16:51:23,2021-07-30 16:51:36,2021-07-30 16:53:02,2021-08-02 17:57:32,2021-08-03 11:32:17,2021-07-27
24169,A14-S007,Mercedes,4T4R,Sin Asignar,Sin Asignar,Sin Asignar,WMERCD,LITO,5102991,ISM-11914,OA,2021-07-23 08:21:00,2021-07-23 08:21:00,2021-07-23 08:50:00,2021-07-23 08:51:00,2021-08-02 11:48:00,,-29.1831,-58.0758,A14,MOP,Nokia,OA,OA Completado,2021-08-02 11:36:29,2021-07-22 19:56:40,2021-07-22 19:57:08,2021-07-22 19:58:31,2021-07-23 09:07:23,2021-08-02 11:36:29,2021-07-19
24170,A19-S020,Puerto Esperanza,4T4R,Sin Asignar,Sin Asignar,Sin Asignar,IPESPZ,LITO,5072538,ISM-11955,OA,2021-07-14 08:33:00,2021-07-14 08:33:00,2021-08-09 09:42:59,2021-08-09 09:44:00,2021-08-10 13:54:59,,-26.0198,-54.6185,A19,MOP,Nokia,OA,OA Completado,2021-08-10 13:42:48,2021-08-09 13:54:38,2021-08-09 13:55:52,2021-08-09 13:57:18,2021-08-09 13:59:22,2021-08-10 13:42:48,2021-07-08
24171,A18-S097,Rbs Aristobulo Del Valle Acceso Ruta 14,4T4R,Sin Asignar,Sin Asignar,Sin Asignar,IARTAC,LITO,5491445,ISM-11950,OA,2021-08-09 13:09:59,2021-08-09 13:09:59,2021-08-09 13:11:00,2021-08-09 13:12:00,2021-08-09 14:15:59,,-27.105,-54.8864,A18,MOP,Nokia,OA,OA Completado,2021-08-09 14:03:52,2021-08-05 09:27:18,2021-08-05 09:27:43,2021-08-05 14:07:05,2021-08-09 14:03:20,2021-08-09 14:03:52,2021-08-03
24172,A22-S034,Ibarreta,4T4R,Sin Asignar,Sin Asignar,Sin Asignar,PIBRRT,LITO,6173989,ISM-11975,OA,2021-09-30 10:48:59,2021-09-30 10:48:59,2021-09-30 18:11:00,2021-10-18 12:06:59,2021-10-18 12:06:59,,-25.2146,-59.8561,A22,MOP,Nokia,OA,OA Completado,2021-10-18 17:45:23,2021-09-30 17:59:20,2021-09-30 17:59:40,2021-10-18 14:12:58,2021-10-18 14:14:46,2021-10-18 17:45:23,
24173,A19-S106,Wanda Centro,4T4R,Sin Asignar,Sin Asignar,Sin Asignar,IWACTR,LITO,,ISM-11961,OA,2021-07-22 10:00:00,2021-07-22 10:00:00,2021-07-22 10:03:59,2021-07-22 10:03:59,2021-07-31 17:15:59,,-25.9731,-54.5661,A19,MOP,Nokia,OA,OA Completado,2021-07-30 17:37:15,2021-07-22 09:58:02,2021-07-22 09:58:38,2021-07-22 10:00:52,2021-07-22 10:01:50,2021-07-30 17:37:15,2021-07-13
24174,A19-S062,Puerto Iguazu Planta De Reciclaje,4T4R,Sin Asignar,Sin Asignar,Sin Asignar,IIPREC,LITO,,ISM-11959,OA,2021-07-23 15:42:00,2021-07-23 15:42:00,2021-07-23 17:05:00,2021-07-23 17:05:00,2021-07-27 15:04:00,,-25.6327,-54.5757,A19,MOP,Nokia,OA,OA Completado,2021-07-27 11:28:37,2021-07-23 16:54:02,2021-07-23 16:54:09,2021-07-23 16:55:53,2021-07-23 16:56:25,2021-07-27 11:28:37,2021-07-20
24175,A04-S062,Rosario Central,4T4R,Sin Asignar,Sin Asignar,Sin Asignar,ZRCENT,LITO,,ISM-13824,OA,2021-04-23 08:10:00,2021-04-23 08:10:00,2021-04-26 13:03:59,2021-04-26 13:05:00,2021-05-05 17:44:59,,-32.9469,-60.6436,A04,Proveedor,Nokia,OA,OA Completado,2021-05-05 17:37:14,2021-04-26 12:44:38,2021-04-26 12:44:54,2021-04-26 12:45:14,2021-05-05 11:58:53,2021-05-05 17:37:14,2021-04-22
24176,A04-S038,Oliveros,4T4R,Sin Asignar,Sin Asignar,Sin Asignar,ZOLIVE,LITO,,ISM-11888,OA,2021-04-16 09:22:59,2021-04-16 09:22:59,2021-04-19 10:57:00,2021-04-19 10:57:00,2021-04-30 16:32:00,,-32.5976,-60.8452,A04,Proveedor,Nokia,OA,OA Completado,2021-05-14 19:47:30,2021-04-16 20:15:07,2021-04-16 20:15:21,2021-04-16 20:16:09,2021-04-16 20:18:25,2021-05-14 19:47:30,2021-04-07
24178,A16-S019,Pampa Del Infierno,4T4R,Sin Asignar,Sin Asignar,Sin Asignar,HPINFR,LITO,,ISM-11923,OA,2021-05-19 08:39:59,2021-05-19 08:39:59,2021-05-19 11:33:59,2021-05-19 11:33:59,2021-05-26 13:03:59,,-26.5053,-61.178,A16,Proveedor,Nokia,OA,OA Completado,2021-05-26 12:55:15,2021-05-19 11:25:52,2021-05-19 11:26:14,2021-05-19 11:27:03,2021-05-19 11:27:57,2021-05-26 12:55:15,2021-05-12
24179,A16-S029,Quitilipi,4T4R,Sin Asignar,Sin Asignar,Sin Asignar,HQTLPI,LITO,,ISM-11925,OA,2021-05-28 09:56:59,2021-05-28 09:56:59,2021-05-28 16:12:59,2021-05-28 16:14:00,2021-06-18 17:57:59,,-26.8717,-60.2166,A16,Proveedor,Nokia,OA,OA Completado,2021-06-18 17:47:36,2021-05-28 16:08:48,2021-05-28 16:09:31,2021-05-28 16:10:43,2021-05-28 16:11:04,2021-06-18 17:47:36,2021-05-19
24183,A17-S019,Corrientes Hipodromo,4T4R,Sin Asignar,Sin Asignar,Sin Asignar,WCHIPO,LITO,,ISM-11938,OA,2021-05-28 08:39:00,2021-05-28 08:39:00,2021-05-28 09:22:00,2021-05-28 09:22:00,2021-06-07 20:01:59,,-27.4689,-58.8038,A17,Proveedor,Nokia,OA,OA Completado,2021-06-07 19:51:26,2021-05-27 14:11:49,2021-05-27 14:12:11,2021-05-28 09:52:09,2021-05-28 09:52:44,2021-06-07 19:51:26,2021-05-18
24184,A16-S052,Rbs Saenz Peña Acceso Norte T.P.,4T4R,Sin Asignar,Sin Asignar,Sin Asignar,HRSACN,LITO,,ISM-11930,OA,2021-05-31 08:17:00,2021-05-31 08:17:00,2021-05-31 14:46:59,2021-05-31 14:46:59,2021-08-04 13:36:00,,-26.7791,-60.4233,A16,Proveedor,Nokia,OA,OA Completado,2021-08-04 13:24:22,2021-05-30 13:58:43,2021-05-30 13:59:07,2021-05-31 14:46:29,2021-05-31 14:46:49,2021-08-04 13:24:22,2021-05-24
24185,A16-S076,Quitilipi Acceso Norte,4T4R,Sin Asignar,Sin Asignar,Sin Asignar,HQTACN,LITO,,ISM-11934,OA,2021-07-02 08:57:59,2021-07-02 08:57:59,2021-07-02 11:26:00,2021-07-02 11:26:00,2021-07-16 11:05:00,,-26.8567,-60.2167,A16,Proveedor,Nokia,OA,OA Completado,2021-07-16 10:52:59,2021-06-30 18:23:50,2021-06-30 18:24:10,2021-07-02 11:14:36,2021-07-02 11:15:01,2021-07-16 10:52:59,2021-06-22
24186,A04-S105,Rosario Junin,4T4R,Sin Asignar,Sin Asignar,Sin Asignar,ZRJUNI,LITO,5278325,ISM-11890,OA,2021-07-28 12:56:59,2021-07-28 12:56:59,2021-07-28 20:55:59,2021-08-02 17:06:00,2021-08-02 17:06:59,,-32.9278,-60.7093,A04,MOP,Nokia,OA,OA Completado,2021-08-02 16:56:44,2021-07-28 20:45:01,2021-07-28 20:45:28,2021-07-28 20:46:42,2021-08-02 16:55:59,2021-08-02 16:56:44,2021-07-21
24224,A03-S091,Icho Cruz,4T4R,Sin Asignar,Sin Asignar,Sin Asignar,XICHOC,MEDI,4978325,ISM-13829,OA,2021-07-16 11:44:00,2021-07-16 11:44:00,2021-07-16 11:46:00,2021-07-16 11:46:00,2021-07-16 13:32:59,,-31.4797,-64.5589,A03,Proveedor,Huawei,OA,OA Completado,2021-07-16 13:20:52,2021-07-12 17:40:51,2021-07-12 17:40:59,2021-07-12 17:43:21,2021-07-15 20:19:20,2021-07-16 13:20:52,2021-07-07
24225,A11-S478,Tucuman El Colmenar,4T4R,Sin Asignar,Sin Asignar,Sin Asignar,TCCOLM,MEDI,5284566,ISM-13830,OA,2021-08-03 17:06:59,2021-08-03 17:06:59,2021-08-03 18:29:59,2021-08-09 12:11:00,2021-08-09 12:11:59,,-26.789,-65.1805,A11,Proveedor,Huawei,OA,OA Completado,2021-08-09 11:59:41,2021-08-03 14:11:29,2021-08-03 14:11:38,2021-08-03 14:15:44,2021-08-03 14:16:31,2021-08-09 11:59:41,2021-07-29
26437,A04-S162,Puerto General San Martin,4T4R,Sin Asignar,Sin Asignar,Sin Asignar,ZPGSMA,LITO,,ISM-13860,OA,2021-06-23 16:03:00,2021-06-23 16:03:00,2021-06-23 18:00:00,2021-06-23 18:00:59,2021-06-29 15:35:00,,-32.7056,-60.7453,A04,MOP,Nokia,OA,OA Completado,2021-06-29 15:26:10,2021-06-24 09:39:00,2021-06-24 09:39:17,2021-06-24 13:45:19,2021-06-24 13:46:05,2021-06-29 15:26:10,2021-06-16
26487,A04-S541,Rosario 26,4T4R,Sin Asignar,Sin Asignar,Sin Asignar,ZRPUNI,LITO,,ISM-13864,OA,2021-07-02 09:04:59,2021-07-02 09:04:59,2021-07-12 10:27:59,2021-07-12 10:27:59,2021-08-02 10:34:59,,-32.9141,-60.7137,A04,MOP,Huawei,OA,OA Completado,2021-07-27 14:32:22,2021-07-12 10:19:32,2021-07-12 10:19:39,2021-07-12 10:23:16,2021-07-12 10:24:04,2021-07-27 14:32:22,2021-06-22
26702,A16-S021,Las Breñas,4T4R,Sin Asignar,Sin Asignar,Sin Asignar,HLBRNS,LITO,5362296,ISM-13869,OA,2021-08-03 10:03:59,2021-08-03 10:03:59,2021-08-04 14:08:00,2021-08-04 14:08:59,2021-08-09 13:00:59,,-27.091,-61.0795,A16,MOP,Nokia,OA,OA Completado,2021-08-09 12:47:14,2021-08-04 14:21:03,2021-08-04 14:21:14,2021-08-04 14:22:11,2021-08-09 12:46:25,2021-08-09 12:47:14,2021-07-28
26714,A14-S013,La Cruz Rep.,4T4R,Sin Asignar,Sin Asignar,Sin Asignar,WLACRZ,LITO,5452688,ISM-13866,OA,2021-08-06 15:29:00,2021-08-06 15:29:00,2021-08-06 15:38:00,2021-08-06 15:38:59,2021-08-11 09:27:00,,-29.1752,-56.642,A14,MOP,Nokia,OA,OA Completado,2021-08-11 09:19:58,2021-08-11 09:17:02,2021-08-11 09:17:26,2021-08-11 09:18:30,2021-08-11 09:19:09,2021-08-11 09:19:58,2021-08-02
26879,A17-S030,Mburucuya,4T4R,Sin Asignar,Sin Asignar,Sin Asignar,WMBRCY,LITO,5529672,ISM-13871,OA,2021-08-11 11:50:00,2021-08-11 11:50:00,2021-08-11 20:26:00,2021-08-18 20:53:00,2021-08-18 20:55:00,,-28.0476,-58.2279,A17,MOP,Nokia,OA,OA Completado,2021-09-02 10:29:59,2021-08-14 11:10:27,2021-08-14 11:10:48,2021-08-14 11:12:02,2021-09-02 10:28:26,2021-09-02 10:29:59,
26960,A16-S018,Avia Terai,4T4R,Sin Asignar,Sin Asignar,Sin Asignar,HAVIAT,LITO,5529883,ISM-13868,OA,2021-08-12 16:50:00,2021-08-12 16:50:00,2021-08-13 09:51:59,2021-08-13 09:53:00,2021-08-17 13:48:59,,-26.6884,-60.7337,A16,MOP,Nokia,OA,OA Completado,2021-08-17 13:36:40,2021-08-13 16:58:09,2021-08-13 16:58:27,2021-08-13 16:59:39,2021-08-13 17:00:26,2021-08-17 13:36:40,
26963,A04-S021,Venado Tuerto Central,4T4R,Sin Asignar,Sin Asignar,Sin Asignar,ZVTCEN,LITO,5452913,ISM-13859,OA,2021-08-13 12:29:00,2021-08-13 12:29:00,2021-08-18 09:20:59,2021-08-18 11:15:59,2021-08-18 11:17:00,,-33.7476,-61.9649,A04,MOP,Nokia,OA,OA Completado,2021-08-18 11:04:12,2021-08-18 09:05:50,2021-08-18 09:05:56,2021-08-18 09:06:48,2021-08-18 11:03:29,2021-08-18 11:04:12,
26964,A17-S018,Saladas,4T4R,Sin Asignar,Sin Asignar,Sin Asignar,WSLDAS,LITO,5743321,ISM-13870,OA,2021-08-17 08:14:00,2021-08-17 08:14:00,2021-08-18 09:24:59,2021-09-08 13:03:00,2021-09-08 13:03:59,,-28.2542,-58.6256,A17,MOP,Nokia,OA,OA Completado,2021-09-08 14:14:11,2021-08-18 09:09:38,2021-08-18 09:09:44,2021-08-18 09:11:07,2021-09-08 14:12:55,2021-09-08 14:14:11,
26985,A04-S072,Rosario Aeropuerto,4T4R,Sin Asignar,Sin Asignar,Sin Asignar,ZRAERO,LITO,5643547,ISM-14582,OA,2021-08-26 12:20:59,2021-08-26 12:20:59,2021-08-27 15:33:00,2021-09-02 09:40:00,2021-09-08 08:15:59,,-32.9186,-60.7353,A04,MOP,Huawei,OA,OA Completado,2021-09-08 08:10:06,2021-08-27 15:23:31,2021-08-27 15:23:49,2021-08-27 15:24:47,2021-08-27 15:25:33,2021-09-08 08:10:06,2021-08-18
27769,A13-S004,Tostado,4T4R,Sin Asignar,Sin Asignar,Sin Asignar,ZTOSTD,LITO,5622498,ISM-13865,OA,2021-08-23 09:15:59,2021-08-23 09:15:59,2021-08-23 09:35:00,2021-08-23 09:36:00,2021-08-23 15:11:00,,-29.2357,-61.7681,A13,MOP,Nokia,OA,OA Completado,2021-08-23 14:58:06,2021-08-23 08:37:56,2021-08-23 08:38:03,2021-08-23 08:38:55,2021-08-23 08:39:28,2021-08-23 14:58:06,
27772,A22-S030,El Sauzalito,4T4R,Sin Asignar,Sin Asignar,Sin Asignar,PSAUZL,LITO,5622966,ISM-13875,OA,2021-08-24 08:05:00,2021-08-24 08:05:00,2021-08-24 09:15:00,2021-08-24 09:15:00,2021-08-24 09:38:00,,-24.4246,-61.6893,A22,MOP,Nokia,OA,OA Completado,2021-09-06 08:32:18,2021-09-06 08:21:52,2021-09-06 08:22:04,2021-09-06 08:25:39,2021-09-06 08:29:16,2021-09-06 08:32:18,
27777,A17-S035,Corrientes San Martin,4T4R,Sin Asignar,Sin Asignar,Sin Asignar,WCSMTN,LITO,5622634,ISM-13872,OA,2021-08-23 11:01:59,2021-08-23 11:01:59,2021-08-25 11:55:00,2021-08-25 11:55:00,2021-08-25 11:55:59,,-27.4979,-58.8239,A17,MOP,Nokia,OA,OA Completado,2021-08-26 08:48:07,2021-08-26 08:44:30,2021-08-26 08:44:48,2021-08-26 08:46:48,2021-08-26 08:47:24,2021-08-26 08:48:07,
27778,A04-S340,Rosario City Center,4T4R,Sin Asignar,Sin Asignar,Sin Asignar,ZRCCEN,LITO,5530417,ISM-13862,OA,2021-08-24 09:04:59,2021-08-24 09:04:59,2021-08-25 17:44:59,2021-08-25 17:46:00,2021-09-02 08:53:00,,-33.0132,-60.6617,A04,MOP,Nokia,OA,OA Completado,2021-09-02 10:31:22,2021-08-26 08:49:26,2021-08-26 08:49:52,2021-08-26 08:50:47,2021-08-26 08:51:21,2021-09-02 10:31:22,
27782,A22-S019,Palo Santo,4T4R,Sin Asignar,Sin Asignar,Sin Asignar,PPSNTO,LITO,5699141,ISM-13874,OA,2021-08-27 09:20:59,2021-08-27 09:20:59,2021-09-07 11:28:00,2021-09-07 11:28:59,2021-09-07 11:30:00,,-25.566,-59.3378,A22,MOP,Nokia,OA,OA Completado,2021-09-07 11:09:52,2021-08-27 08:14:35,2021-08-27 08:15:08,2021-08-27 08:16:20,2021-08-27 08:16:58,2021-09-07 11:09:52,
27784,A03-S075,Cordoba Arguello,4T4R,Sin Asignar,Sin Asignar,Sin Asignar,XCARGU,MEDI,6635242,ISM-14462,OA,2021-11-04 16:56:00,2021-11-04 16:56:00,2021-11-05 22:34:00,2021-11-05 22:34:59,2021-11-12 18:27:59,,-31.3373,-64.2555,A03,MOP,Huawei,OA,OA Completado,2021-11-12 18:14:29,2021-11-05 22:11:48,2021-11-05 22:12:01,2021-11-05 22:15:09,2021-11-05 22:16:06,2021-11-12 18:14:29,
27785,A03-S362,Los Cedros,4T4R,Sin Asignar,Sin Asignar,Sin Asignar,XLCEDR,MEDI,6468093,ISM-14463,OA,2021-11-08 18:22:00,2021-11-08 18:22:00,2021-11-12 10:03:59,2021-11-12 10:03:59,2021-11-12 10:05:00,,-31.5256,-64.276,A03,MOP,Huawei,OA,OA Completado,2021-11-01 09:15:05,2021-10-28 17:28:04,2021-10-28 17:32:43,2021-10-28 17:33:35,2021-11-01 09:11:48,2021-11-01 09:15:05,
27789,A10-S024,Los Altos,4T4R,Sin Asignar,Sin Asignar,Sin Asignar,KLALTO,MEDI,6345782,ISM-14466,OA,2021-10-14 15:40:00,2021-10-14 15:40:00,2021-10-18 11:17:00,2021-10-18 11:17:59,2021-10-21 16:30:59,,-28.0472,-65.5011,A10,MOP,Huawei,OA,OA Completado,2021-10-21 16:18:28,2021-10-14 15:26:25,2021-10-14 15:26:33,2021-10-14 15:28:26,2021-10-14 15:30:04,2021-10-21 16:18:28,
27790,A10-S108,Saujil,4T4R,Sin Asignar,Sin Asignar,Sin Asignar,KSAUJI,MEDI,,ISM-14468,OA,2021-10-21 10:43:59,2021-10-21 10:43:59,2021-10-22 22:59:59,2021-10-26 22:18:59,2021-10-28 14:39:00,,-28.1748,-66.2104,A10,MOP,Huawei,OA,OA Completado,2021-10-28 14:26:08,2021-10-22 21:42:44,2021-10-22 21:42:55,2021-10-22 21:44:14,2021-10-26 22:16:42,2021-10-28 14:26:08,
27791,A11-S002,Clodomira,4T4R,Sin Asignar,Sin Asignar,Sin Asignar,GCLODO,MEDI,6395733,ISM-14469,OA,2021-10-25 10:34:59,2021-10-25 10:34:59,2021-10-26 15:02:59,2021-10-26 15:04:00,2021-10-28 10:29:00,,-27.5781,-64.1339,A11,MOP,Huawei,OA,OA Completado,2021-10-28 10:16:08,2021-10-22 17:52:13,2021-10-22 17:52:22,2021-10-26 14:50:24,2021-10-26 14:51:04,2021-10-28 10:16:08,
27792,A11-S010,Pozo Hondo,4T4R,Sin Asignar,Sin Asignar,Sin Asignar,GPOZOH,MEDI,6560989,ISM-14470,OA,2021-10-29 08:59:00,2021-10-29 08:59:00,2021-10-31 21:44:00,2021-11-10 21:09:00,2021-11-12 10:50:59,,-27.1707,-64.4889,A11,MOP,Huawei,OA,OA Completado,2021-11-12 10:41:54,2021-11-01 10:14:21,2021-11-01 10:14:33,2021-11-01 10:22:45,2021-11-10 20:52:28,2021-11-12 10:41:54,
27794,A11-S042,Estacion Araoz,4T4R,Sin Asignar,Sin Asignar,Sin Asignar,TEARAO,MEDI,6514650,ISM-14473,OA,2021-10-27 16:25:59,2021-10-27 16:25:59,2021-10-28 10:27:00,2021-10-28 21:49:59,2021-11-04 22:03:59,,-27.05,-64.9222,A11,MOP,Huawei,OA,OA Completado,2021-11-04 21:51:05,2021-10-28 10:16:06,2021-10-28 10:16:18,2021-10-28 10:18:00,2021-10-29 08:38:19,2021-11-04 21:51:05,
27795,A11-S044,El Cortaderal Repetidora,4T4R,Sin Asignar,Sin Asignar,Sin Asignar,TCORTA,MEDI,6514697,ISM-13881,OA,2021-11-01 14:53:59,2021-11-01 14:53:59,2021-11-10 11:48:00,2021-11-10 11:48:00,2021-11-10 11:48:59,,-27.0761,-65.1511,A11,MOP,Huawei,OA,OA Completado,2021-11-10 11:36:09,2021-10-29 15:45:32,2021-10-29 15:46:32,2021-11-10 11:34:58,2021-11-10 11:35:31,2021-11-10 11:36:09,
27798,A11-S050,Arraga,4T4R,Sin Asignar,Sin Asignar,Sin Asignar,GARRAG,MEDI,,ISM-14475,OA,2021-11-01 18:26:00,2021-11-01 18:26:00,2021-11-02 17:33:59,2021-11-04 14:32:00,2021-11-12 10:47:00,,-28.0504,-64.2226,A11,MOP,Huawei,OA,OA Completado,2021-11-12 10:37:11,2021-11-02 17:19:01,2021-11-02 17:19:11,2021-11-02 18:24:10,2021-11-04 17:11:11,2021-11-12 10:37:11,
27801,A11-S057,Colombres,4T4R,Sin Asignar,Sin Asignar,Sin Asignar,TCOLOM,MEDI,,ISM-13884,RFT,2021-11-12 11:15:00,2021-11-12 11:15:00,2021-11-12 11:19:00,2021-11-12 11:19:59,,,-26.8817,-65.0997,A11,MOP,Huawei,RFT,RFT nuevo ingreso,2021-11-11 17:24:49,2021-11-10 17:34:54,2021-11-10 17:35:04,2021-11-10 17:36:44,2021-11-11 17:24:49,,
27802,A11-S059,Trinidad Medina,4T4R,EMILIANO,HORVATH,E. HORVATH,TTRINI,MEDI,6720060,ISM-13885,RFA,2021-11-12 15:51:59,2021-11-12 15:51:59,2021-11-12 16:16:00,,,,-27.4067,-65.5158,A11,MOP,Huawei,RFT,Con fallas adm.,2021-11-10 11:02:47,2021-11-08 10:51:05,2021-11-08 11:41:14,2021-11-09 11:34:30,2021-11-10 11:02:47,,
27804,A11-S119,Tucuman Villa Mariano Moreno,4T4R,Sin Asignar,Sin Asignar,Sin Asignar,TCVIMM,MEDI,6529655,ISM-14479,OA,2021-10-26 16:57:00,2021-10-26 16:57:00,2021-10-26 17:15:59,2021-10-26 17:15:59,2021-10-28 10:07:00,,-26.7789,-65.2105,A11,MOP,Huawei,OA,OA Completado,2021-10-28 09:53:34,2021-10-25 18:17:29,2021-10-25 18:17:40,2021-10-25 18:18:31,2021-10-27 16:28:53,2021-10-28 09:53:34,
27805,A11-S130,Tucuman Piedrabuena,4T4R,Sin Asignar,Sin Asignar,Sin Asignar,TCPBNA,MEDI,6581395,ISM-14480,OA,2021-10-26 17:33:00,2021-10-26 17:33:00,2021-11-02 14:39:00,2021-11-02 14:39:59,2021-11-05 07:47:00,,-26.8188,-65.1692,A11,MOP,Huawei,OA,OA Completado,2021-11-05 07:33:35,2021-11-02 14:24:11,2021-11-02 14:26:09,2021-11-02 15:42:29,2021-11-05 07:33:00,2021-11-05 07:33:35,
27808,A11-S234,Santiago Los Quiroga,4T4R,Sin Asignar,Sin Asignar,Sin Asignar,GCLQRA,MEDI,6499254,ISM-14483,OA,2021-10-26 16:59:00,2021-10-26 16:59:00,2021-10-26 21:20:59,2021-10-28 10:48:00,2021-10-28 15:36:59,,-27.683,-64.3581,A11,MOP,Huawei,OA,OA Completado,2021-10-28 15:24:40,2021-10-25 22:14:44,2021-10-25 22:14:59,2021-10-26 21:05:06,2021-10-28 10:33:17,2021-10-28 15:24:40,
27811,A11-S407,Concepcion 5,4T4R,Sin Asignar,Sin Asignar,Sin Asignar,TCONC5,MEDI,6637285,ISM-14485,OA,2021-11-03 18:15:59,2021-11-03 18:15:59,2021-11-10 11:57:00,2021-11-10 11:57:59,2021-11-10 11:57:59,,-27.3395,-65.5938,A11,MOP,Huawei,OA,OA Completado,2021-11-10 11:46:08,2021-11-03 15:24:56,2021-11-03 15:25:18,2021-11-03 17:00:13,2021-11-10 11:43:32,2021-11-10 11:46:08,
27812,A11-S420,Los Ralos 2,4T4R,Sin Asignar,Sin Asignar,Sin Asignar,TLRALB,MEDI,,ISM-14486,OA,2021-11-05 18:20:59,2021-11-05 18:20:59,2021-11-10 21:17:00,2021-11-10 21:18:00,2021-11-11 17:37:00,,-26.8859,-64.997,A11,MOP,Huawei,OA,OA Completado,2021-11-11 17:23:17,2021-11-10 20:57:15,2021-11-10 20:57:22,2021-11-10 20:58:48,2021-11-10 21:03:50,2021-11-11 17:23:17,
27816,A12-S001,Taco Pozo,4T4R,Sin Asignar,Sin Asignar,Sin Asignar,ATACOP,MEDI,6570626,ISM-13892,OA,2021-10-27 16:25:00,2021-10-27 16:25:00,2021-10-28 10:50:59,2021-11-01 10:39:00,2021-11-10 21:15:00,,-25.6212,-63.263,A12,MOP,Huawei,OA,OA Completado,2021-11-10 21:00:48,2021-10-26 21:07:59,2021-10-26 21:08:16,2021-11-01 10:10:29,2021-11-01 10:11:20,2021-11-10 21:00:48,
27819,A12-S012,añatuya,4T4R,Sin Asignar,Sin Asignar,Sin Asignar,GANATU,MEDI,,ISM-14492,OA,2021-11-04 09:42:00,2021-11-04 09:42:00,2021-11-04 14:55:00,2021-11-05 08:15:00,2021-11-05 21:27:00,,-28.4495,-62.8332,A12,MOP,Huawei,OA,OA Completado,2021-11-05 21:13:36,2021-11-05 08:00:56,2021-11-05 08:01:09,2021-11-05 08:02:23,2021-11-05 08:03:19,2021-11-05 21:13:36,
27820,A12-S022,Los Telares,4T4R,Sin Asignar,Sin Asignar,Sin Asignar,GTELAR,MEDI,,ISM-14494,OA,2021-11-04 09:38:00,2021-11-04 09:38:00,2021-11-04 14:46:00,2021-11-05 07:52:00,2021-11-05 08:12:00,,-28.9833,-63.4506,A12,MOP,Huawei,OA,OA Completado,2021-11-05 07:58:33,2021-11-04 14:31:32,2021-11-04 14:31:46,2021-11-04 14:33:09,2021-11-05 07:38:00,2021-11-05 07:58:33,
27822,A12-S056,Sumampa 2 ( Claro),4T4R,Sin Asignar,Sin Asignar,Sin Asignar,GSUMAB,MEDI,6416157,ISM-14496,OA,2021-10-21 07:56:00,2021-10-21 07:56:00,2021-10-21 13:52:59,2021-10-22 23:03:00,2021-10-28 14:08:59,,-29.3765,-63.4729,A12,MOP,Huawei,OA,OA Completado,2021-10-28 13:55:38,2021-10-21 13:32:19,2021-10-21 13:32:31,2021-10-21 13:34:27,2021-10-26 22:05:12,2021-10-28 13:55:38,
27824,A21-S031,Salta Arenales,4T4R,Sin Asignar,Sin Asignar,Sin Asignar,ACAREN,MEDI,6346402,ISM-14499,OA,2021-10-26 17:03:00,2021-10-26 17:03:00,2021-10-26 17:12:59,2021-10-26 17:15:00,2021-10-26 17:15:00,,-24.8322,-65.3943,A21,MOP,Huawei,OA,OA Completado,2021-10-26 10:43:45,2021-10-21 16:33:42,2021-10-21 16:57:50,2021-10-21 17:06:05,2021-10-26 10:40:54,2021-10-26 10:43:45,
27825,A21-S037,Cerrillos Rep.,4T4R,Sin Asignar,Sin Asignar,Sin Asignar,ACERRI,MEDI,6599834,ISM-13898,OA,2021-11-01 14:57:59,2021-11-01 14:57:59,2021-11-01 15:00:00,2021-11-01 15:00:59,2021-11-01 15:00:59,,-24.9017,-65.4819,A21,MOP,Huawei,OA,OA Completado,2021-11-01 14:50:40,2021-11-01 14:47:36,2021-11-01 14:47:50,2021-11-01 14:49:03,2021-11-01 14:49:47,2021-11-01 14:50:40,
27827,A21-S397,Salta Centro Civico,4T4R,Sin Asignar,Sin Asignar,Sin Asignar,ACIVIC,MEDI,6483020,ISM-14502,OA,2021-10-26 17:06:00,2021-10-26 17:06:00,2021-10-28 14:55:00,2021-10-28 14:55:59,2021-10-28 14:55:59,,-24.7831,-65.451,A21,MOP,Huawei,OA,OA Completado,2021-10-28 14:46:41,2021-10-25 12:03:40,2021-10-28 14:43:09,2021-10-28 14:45:28,2021-10-28 14:46:13,2021-10-28 14:46:41,
27830,OPU082,Churruca,4T4R,Sin Asignar,Sin Asignar,Sin Asignar,OCHU,AMBA,6495758,ISM-14458,OA,2021-10-21 18:44:00,2021-10-21 18:44:00,2021-10-25 17:44:00,2021-10-25 17:44:00,2021-10-28 11:55:59,,-34.5611,-58.6058,OPU,MOP,Huawei,OA,OA Completado,2021-10-28 11:42:10,2021-10-21 18:41:22,2021-10-21 18:41:30,2021-10-21 18:44:34,2021-10-25 17:30:51,2021-10-28 11:42:10,
27832,OPU424,Cementerio Parque Bosque Del Recuerdo,4T4R,Sin Asignar,Sin Asignar,Sin Asignar,OCBR,AMBA,6706950,ISM-13856,RFT,2021-11-05 18:33:00,2021-11-05 18:33:00,2021-11-05 19:45:59,2021-11-05 19:45:59,,,-34.536,-58.5899,OPU,MOP,Huawei,RFT,RFT nuevo ingreso,2021-11-05 19:31:34,2021-11-05 10:39:58,2021-11-05 10:40:05,2021-11-05 19:28:53,2021-11-05 19:31:34,,
27837,A03-S466,Cordoba Angelelli,4T4R,Sin Asignar,Sin Asignar,Sin Asignar,XCANGE,MEDI,6346361,ISM-15915,OA,2021-10-25 13:34:59,2021-10-25 13:34:59,2021-10-26 22:12:59,2021-10-26 22:14:00,2021-10-28 15:17:00,,-31.5097,-64.2113,A03,MOP,Huawei,OA,OA Completado,2021-10-28 15:06:10,2021-10-21 13:41:54,2021-10-21 13:42:06,2021-10-21 13:45:02,2021-10-26 22:01:20,2021-10-28 15:06:10,
27848,CPU222,Ciudad Oculta,4T4R,Sin Asignar,Sin Asignar,Sin Asignar,CCIO,AMBA,,ISM-16009,OA,2021-11-09 13:18:00,2021-11-09 13:18:00,2021-11-10 17:46:59,2021-11-11 17:44:59,2021-11-12 11:03:59,,-34.6701,-58.4887,CPU,MOP,Huawei,OA,OA Completado,2021-11-12 10:49:50,2021-11-10 17:30:13,2021-11-10 17:30:30,2021-11-10 17:32:10,2021-11-12 10:48:22,2021-11-12 10:49:50,
27857,A14-S017,Santa Lucia,4T4R,Sin Asignar,Sin Asignar,Sin Asignar,WSTLUC,LITO,,ISM-13867,OA,2021-08-03 10:45:59,2021-08-03 10:45:59,2021-08-03 20:10:59,2021-08-03 20:10:59,2021-08-18 18:42:00,,-28.9888,-59.1018,A14,MOP,Nokia,OA,OA Completado,2021-09-06 08:42:44,2021-09-06 08:36:50,2021-09-06 08:37:01,2021-09-06 08:38:47,2021-09-06 08:39:49,2021-09-06 08:42:44,
27859,A22-S018,El Colorado,4T4R,Sin Asignar,Sin Asignar,Sin Asignar,PCLRDO,LITO,5740717,ISM-13873,OA,2021-09-03 09:20:59,2021-09-03 09:20:59,2021-09-03 10:39:59,2021-09-03 10:41:59,2021-09-14 09:38:00,,-26.3069,-59.3697,A22,MOP,Nokia,OA,OA Completado,2021-09-14 09:21:42,2021-09-02 17:53:55,2021-09-02 17:54:07,2021-09-02 22:23:44,2021-09-02 22:30:03,2021-09-14 09:21:42,
27864,A07-S024,San Justo,4T4R,Sin Asignar,Sin Asignar,Sin Asignar,ZSJUST,LITO,ISM-15920,ISM-15920,OA,2021-11-03 14:39:00,2021-11-03 14:39:00,2021-11-03 14:42:59,2021-11-03 16:27:00,2021-11-09 10:29:00,,-30.7897,-60.5892,A07,MOP,Nokia,OA,OA Completado,2021-11-09 10:20:38,2021-11-03 16:14:52,2021-11-03 16:15:08,2021-11-03 16:16:58,2021-11-03 16:18:06,2021-11-09 10:20:38,
27865,A14-S044,Bella Vista Sur,4T4R,Sin Asignar,Sin Asignar,Sin Asignar,WBVSUR,LITO,6375494,ISM-15940,OA,2021-10-14 15:33:00,2021-10-14 15:33:00,2021-10-14 15:56:59,2021-10-14 16:16:59,2021-10-18 14:42:00,,-28.5208,-59.049,A14,MOP,Nokia,OA,OA Completado,2021-10-18 14:29:01,2021-10-14 15:48:11,2021-10-14 15:48:22,2021-10-14 15:49:38,2021-10-14 16:51:45,2021-10-18 14:29:01,
27866,A16-S011,Villa Rio Bermejito,4T4R,Sin Asignar,Sin Asignar,Sin Asignar,HVRBRJ,LITO,5740083,ISM-15943,OA,2021-09-10 08:51:00,2021-09-10 08:51:00,2021-09-10 13:00:59,2021-09-10 13:02:00,2021-09-21 16:07:00,,-25.6387,-60.2653,A16,MOP,Nokia,OA,OA Completado,2021-09-21 15:50:07,2021-09-10 12:49:32,2021-09-10 12:50:08,2021-09-10 12:51:22,2021-09-10 12:52:11,2021-09-21 15:50:07,
27867,A16-S012,Tres Isletas,4T4R,Sin Asignar,Sin Asignar,Sin Asignar,HTRISL,LITO,5821801,ISM-15944,OA,2021-09-02 11:48:59,2021-09-02 11:48:59,2021-09-02 19:48:00,2021-09-02 19:48:59,2021-09-08 10:59:59,,-26.3373,-60.431,A16,MOP,Nokia,OA,OA Completado,2021-09-08 10:46:46,2021-09-02 19:37:25,2021-09-02 19:39:18,2021-09-02 19:40:30,2021-09-02 19:41:18,2021-09-08 10:46:46,
27868,A16-S013,Villa Angela,4T4R,Sin Asignar,Sin Asignar,Sin Asignar,HVANGL,LITO,6246234,ISM-15945,OA,2021-10-01 14:57:00,2021-10-01 14:57:00,2021-10-01 18:15:00,2021-11-03 10:45:59,2021-11-03 10:47:00,,-27.5786,-60.7117,A16,MOP,Nokia,OA,OA Completado,2021-11-03 10:37:01,2021-10-01 18:03:29,2021-10-01 18:03:35,2021-10-01 18:05:07,2021-10-29 16:44:17,2021-11-03 10:37:01,
27869,A16-S157,Juan Jose Castelli Bartolome Mitre,4T4R,Sin Asignar,Sin Asignar,Sin Asignar,HJJCBM,LITO,5948374,ISM-15946,OA,2021-09-16 13:12:59,2021-09-16 13:12:59,2021-09-16 21:18:00,2021-09-17 16:48:00,2021-09-21 20:37:59,,-25.9317,-60.6226,A16,MOP,Nokia,OA,OA Completado,2021-09-21 20:25:05,2021-09-16 21:07:06,2021-09-16 21:07:26,2021-09-21 20:02:13,2021-09-21 20:21:42,2021-09-21 20:25:05,
27871,A17-S080,La Escondida,4T4R,Sin Asignar,Sin Asignar,Sin Asignar,HLESCN,LITO,5948494,ISM-15948,OA,2021-09-16 13:12:59,2021-09-16 13:12:59,2021-09-17 20:35:59,2021-09-22 13:11:00,2021-09-23 18:54:00,,-27.1036,-59.4436,A17,MOP,Nokia,OA,OA Completado,2021-09-23 19:36:40,2021-09-17 20:27:16,2021-09-17 20:27:36,2021-09-22 12:58:45,2021-09-22 12:59:22,2021-09-23 19:36:40,
27872,A17-S106,Corrientes Fray J. Quintana,4T4R,Sin Asignar,Sin Asignar,Sin Asignar,WCFJQN,LITO,6458325,ISM-15949,OA,2021-10-22 08:41:00,2021-10-22 08:41:00,2021-10-22 08:44:00,2021-10-22 11:37:59,2021-10-25 15:51:00,,-27.5113,-58.8103,A17,MOP,Nokia,OA,OA Completado,2021-10-25 15:37:30,2021-10-22 08:36:03,2021-10-22 08:51:54,2021-10-22 08:53:16,2021-10-22 11:24:21,2021-10-25 15:37:30,
27873,A17-S117,Corrientes Yapeyu,4T4R,Sin Asignar,Sin Asignar,Sin Asignar,WCYPYU,LITO,6312350,ISM-15950,OA,2021-10-14 15:27:00,2021-10-14 15:27:00,2021-10-14 18:45:59,2021-10-14 18:47:00,2021-10-15 19:18:59,,-27.4678,-58.8128,A17,MOP,Nokia,OA,OA Completado,2021-10-15 19:04:59,2021-10-14 18:32:55,2021-10-14 18:33:14,2021-10-15 09:33:39,2021-10-15 09:34:15,2021-10-15 19:04:59,
27874,A17-S288,Corrientes Zona Fabril R12,4T4R,Sin Asignar,Sin Asignar,Sin Asignar,WCZOFA,LITO,6121093,ISM-15951,OA,2021-09-28 11:37:59,2021-09-28 11:37:59,2021-09-28 12:42:00,2021-09-28 12:42:00,2021-11-09 13:23:59,,-27.5196,-58.7686,A17,MOP,Nokia,OA,OA Completado,2021-11-09 13:12:28,2021-09-27 17:27:19,2021-09-27 17:27:28,2021-09-27 17:28:54,2021-09-28 12:31:06,2021-11-09 13:12:28,
27875,A18-S001,Ituzaingo,4T4R,MARIANO ,BRITO SANCHEZ,M. BRITO SANCHEZ,WITZNG,LITO,6558103,ISM-15952,RFT,2021-10-26 13:41:59,2021-10-26 13:41:59,2021-10-26 17:35:59,2021-10-27 16:43:59,,,-27.5869,-56.6914,A18,MOP,Nokia,RFT,Con fallas fisicas,2021-10-27 16:31:09,2021-10-26 17:22:01,2021-10-26 17:22:13,2021-10-26 17:23:27,2021-10-27 16:31:09,,
27876,A18-S004,25 De Mayo,4T4R,Sin Asignar,Sin Asignar,Sin Asignar,I25MYO,LITO,6375553,ISM-15953,OA,2021-10-13 11:51:00,2021-10-13 11:51:00,2021-10-14 14:48:59,2021-10-14 14:48:59,2021-10-15 11:42:59,,-27.3791,-54.7389,A18,MOP,Nokia,OA,OA Completado,2021-10-15 11:34:09,2021-10-14 16:05:40,2021-10-14 16:06:03,2021-10-14 16:07:25,2021-10-14 16:08:04,2021-10-15 11:34:09,
27877,A18-S177,Gobernador Virasoro Hospital(Cti),4T4R,Sin Asignar,Sin Asignar,Sin Asignar,IGVRSR,LITO,5948721,ISM-15954,OA,2021-09-16 13:00:00,2021-09-16 13:00:00,2021-09-16 14:17:59,2021-09-16 14:42:59,2021-09-28 14:44:59,,-28.0612,-56.0138,A18,MOP,Nokia,OA,OA Completado,2021-09-28 14:32:23,2021-09-16 14:33:08,2021-09-16 14:33:35,2021-09-16 14:35:00,2021-09-16 17:50:34,2021-09-28 14:32:23,
27878,A22-S025,Estanislao Del Campo,4T4R,Sin Asignar,Sin Asignar,Sin Asignar,PESCMP,LITO,6282441,ISM-15957,OA,2021-10-14 15:26:00,2021-10-14 15:26:00,2021-10-14 15:56:00,2021-10-14 15:56:00,2021-10-19 08:55:00,,-25.0538,-60.0865,A22,MOP,Nokia,OA,OA Completado,2021-10-19 08:49:18,2021-10-14 16:39:16,2021-10-14 16:39:24,2021-10-14 16:40:48,2021-10-19 08:43:36,2021-10-19 08:49:18,
27880,A22-S049,Tres Lagunas,4T4R,Sin Asignar,Sin Asignar,Sin Asignar,P3LAGN,LITO,6458640,ISM-15257,OA,2021-10-19 09:13:59,2021-10-19 09:13:59,2021-10-19 09:15:00,2021-10-19 09:15:59,2021-10-26 14:39:59,,-25.2171,-58.5104,A22,MOP,Nokia,OA,OA Completado,2021-10-26 14:30:22,2021-10-19 09:04:58,2021-10-19 09:05:04,2021-10-26 14:28:00,2021-10-26 14:28:48,2021-10-26 14:30:22,
29061,A18-S019,Campo Viera,4T4R,Sin Asignar,Sin Asignar,Sin Asignar,ICPVIE,LITO,6557770,ISM-16264,OA,2021-10-25 16:23:00,2021-10-25 16:23:00,2021-10-25 20:37:59,2021-10-25 20:39:00,2021-10-31 20:05:00,,-27.3343,-55.0515,A18,MOP,Nokia,OA,OA Completado,2021-11-01 08:28:02,2021-10-26 13:52:23,2021-10-26 13:52:30,2021-10-26 13:54:08,2021-10-26 13:54:55,2021-11-01 08:28:02,
29064,A18-S008,Santa Ana,4T4R,Sin Asignar,Sin Asignar,Sin Asignar,ISTANA,LITO,6458786,ISM-16252,OA,2021-10-22 08:12:00,2021-10-22 08:12:00,2021-10-27 12:22:00,2021-10-27 12:22:59,2021-10-27 12:31:00,,-27.3664,-55.583,A18,MOP,Nokia,OA,OA Completado,2021-11-08 12:40:12,2021-11-08 12:34:40,2021-11-08 12:34:52,2021-11-08 12:37:25,2021-11-08 12:39:22,2021-11-08 12:40:12,
29068,SPU802,Barrio La Morita,4T4R,Sin Asignar,Sin Asignar,Sin Asignar,SBLM,AMBA,6565257,ISM-16033,OA,2021-11-02 08:57:00,2021-11-03 14:26:59,2021-11-03 14:32:00,2021-11-08 12:54:00,2021-11-12 15:58:00,,-34.8414,-58.4606,SPU,MOP,Huawei,RFA,Con fallas adm.,2021-10-29 13:31:56,2021-10-29 13:30:53,2021-10-29 13:31:00,2021-10-29 13:31:56,,,
29168,A19-S075,Wanda,4T4R,Sin Asignar,Sin Asignar,Sin Asignar,IWANDA,LITO,6673620,ISM-16257,OA,2021-11-05 14:32:00,2021-11-05 14:32:00,2021-11-05 14:39:59,2021-11-05 14:39:59,2021-11-10 08:35:00,,,,,MOP,Nokia,OA,OA Completado,2021-11-10 08:37:44,2021-11-05 18:23:42,2021-11-05 18:24:14,2021-11-05 18:25:46,2021-11-05 18:27:04,2021-11-10 08:37:44,
29171,A22-S078,Las Lomitas Acceso R81,4T4R,Sin Asignar,Sin Asignar,Sin Asignar,PLMTAC,LITO,6673697,ISM-16259,OA,2021-11-05 14:37:00,2021-11-05 14:37:00,2021-11-05 14:55:59,2021-11-05 14:57:00,2021-11-09 12:26:00,,-24.6947,-60.5973,A22,MOP,Nokia,OA,OA Completado,2021-11-09 12:30:48,2021-11-08 08:04:16,2021-11-08 08:04:32,2021-11-08 08:05:30,2021-11-08 17:45:25,2021-11-09 12:30:48,
29172,A18-S162,Candelaria Costanera,4T4R,Sin Asignar,Sin Asignar,Sin Asignar,ICNDCO,LITO,6673753,ISM-16267,OA,2021-11-04 15:17:00,2021-11-04 15:17:00,2021-11-04 16:07:59,2021-11-04 16:11:00,2021-11-09 12:06:59,,-27.4536,-55.743,A18,MOP,NOKIA,OA,OA Completado,2021-11-09 11:54:45,2021-11-08 07:51:57,2021-11-08 07:52:03,2021-11-08 07:53:19,2021-11-08 07:54:06,2021-11-09 11:54:45,
29224,A19-S058,Puerto Iguazu Acceso Sur,4T4R,Sin Asignar,Sin Asignar,Sin Asignar,IIASUR,LITO,6778239,ISM-16253,OA,2021-11-11 11:26:59,2021-11-11 11:26:59,2021-11-11 12:33:59,2021-11-11 14:44:59,2021-11-11 17:57:59,,-25.6145,-54.5768,A19,MOP,Nokia,OA,OA Completado,2021-11-15 14:51:58,2021-11-11 09:32:03,2021-11-11 09:32:18,2021-11-11 17:44:17,2021-11-12 08:41:15,2021-11-15 14:51:58,
