intervencionId,codigoSitio,NombreSitio,NombreProyecto,Nombre,Apellido,nombreCorto,EMG,Region,ICD,CasoSigo,estadoSigo,fechaRFPSIGO,fechaRFISIGO,fechaRFASIGO,fechaRFTSIGO,fechaOASIGO,contratista,Latitud,Longitud,ALM,ManoObra,Vendor,EstadoIM,subEstado,FechaEstadoIM,fechaRFPSIM,fechaRFISIM,fechaRFASIM,fechaRFTSIM,fechaOASIM,FechaIntegracionProgramada
19568,A04-S437,Rosario Ambito,NB_IOT,Sin Asignar,Sin Asignar,Sin Asignar,ZRAMBI,LITO,,ISM-10191,OA,2020-11-13 09:33:00,2020-11-13 09:33:00,2021-02-09 16:36:59,2021-02-09 17:10:00,2021-02-10 09:06:00,,-32.9401,-60.6471,A04,MOP,Nokia,OA,OA Completado,2021-02-09 16:37:14,,2021-02-09 16:36:11,2021-02-09 16:36:29,2021-02-09 16:36:42,2021-02-09 16:37:14,2021-02-09
19576,A04-S462,Rosario Lola Mora (Reemplaza A04-S116),NB_IOT,Sin Asignar,Sin Asignar,Sin Asignar,ZRLOLA,LITO,,ISM-10199,OA,2020-11-13 09:38:00,2020-11-13 09:38:00,2021-02-09 16:41:59,2021-02-09 17:12:59,2021-02-10 09:06:00,,-32.9408,-60.6453,A04,MOP,Nokia,OA,OA Completado,2021-02-09 16:40:25,,2021-02-09 16:39:32,2021-02-09 16:39:47,2021-02-09 16:39:58,2021-02-09 16:40:25,2021-02-09
19608,A04-S681,Rosario Sede Gobernacion,NB_IOT,Sin Asignar,Sin Asignar,Sin Asignar,ZRSGOB,LITO,,ISM-10231,OA,2020-11-17 09:33:00,2020-11-17 09:33:00,2021-02-09 16:50:59,2021-02-09 17:32:00,2021-02-10 09:06:59,,,,,MOP,Nokia,OA,OA Completado,2021-02-17 09:42:38,,2021-02-09 16:41:55,2021-02-09 16:41:58,2021-02-09 16:42:06,2021-02-17 09:42:38,2021-02-09
19615,A06-S009,Rafaela Repetidora,NB_IOT,Sin Asignar,Sin Asignar,Sin Asignar,ZRAFRE,LITO,,ISM-10238,OA,2020-11-17 09:27:59,2020-11-17 09:27:59,2021-01-21 12:40:59,2021-01-21 13:32:59,2021-01-22 12:20:00,,-31.2321,-61.496,A06,MOP,Huawei,OA,OA Completado,2021-01-22 12:22:01,,2021-01-21 12:55:02,2021-01-21 12:55:12,2021-01-22 12:21:34,2021-01-22 12:22:01,2021-01-22
19616,A06-S014,Rafaela Central,NB_IOT,Sin Asignar,Sin Asignar,Sin Asignar,ZRAFCE,LITO,,ISM-10239,OA,2020-11-17 09:31:00,2020-11-17 09:31:00,2021-01-21 12:54:00,2021-01-22 12:24:59,2021-01-22 12:38:00,,-31.252,-61.4876,A06,MOP,Huawei,OA,OA Completado,2021-01-22 12:30:52,,2021-01-21 12:56:36,2021-01-21 12:56:47,2021-01-22 12:30:12,2021-01-22 12:30:52,2021-01-22
19617,A06-S073,Rafaela 2,NB_IOT,Sin Asignar,Sin Asignar,Sin Asignar,ZRAFAE,LITO,,ISM-10240,OA,2020-11-17 09:29:59,2020-11-17 09:29:59,2021-01-05 18:26:00,2021-01-06 14:35:00,2021-01-27 16:07:00,,-31.263,-61.4598,A06,MOP,Huawei,OA,OA Completado,2021-01-27 15:56:01,,2021-01-05 19:24:18,2021-01-05 19:24:38,2021-01-06 14:16:16,2021-01-27 15:56:01,2021-01-06
19618,A06-S112,Rafaela 6,NB_IOT,Sin Asignar,Sin Asignar,Sin Asignar,ZRAFAF,LITO,,ISM-10241,OA,2020-11-17 09:29:00,2020-11-17 09:29:00,2021-01-21 12:45:00,2021-01-21 13:36:59,2021-01-22 12:20:59,,-31.2546,-61.49,A06,MOP,Huawei,OA,OA Completado,2021-01-22 12:24:10,,2021-01-21 12:57:43,2021-01-21 12:58:02,2021-01-22 12:23:17,2021-01-22 12:24:10,2021-01-22
19619,A06-S147,RAFAELA 4,NB_IOT,Sin Asignar,Sin Asignar,Sin Asignar,ZRAFEM,LITO,,ISM-10242,OA,2020-11-17 09:31:59,2020-11-17 09:31:59,2021-01-05 18:27:59,2021-01-06 14:50:00,2021-01-12 18:04:00,,,,,MOP,Huawei,OA,OA Completado,2021-01-12 18:19:08,,2021-01-05 19:26:32,2021-01-05 19:26:55,2021-01-06 13:57:51,2021-01-12 18:19:08,2021-01-06
19628,A03-S062,Cordoba Ciadea,NB_IOT,Sin Asignar,Sin Asignar,Sin Asignar,XCCIAD,MEDI,,ISM-11802,OA,2020-11-25 15:49:59,2020-11-25 15:49:59,2021-02-08 17:30:59,2021-02-09 10:05:00,2021-02-17 08:01:59,,-31.4708,-64.2586,A03,MOP,Huawei,OA,OA Completado,2021-02-08 18:02:00,,2021-01-25 13:13:49,2021-02-08 17:59:58,2021-02-08 18:00:04,2021-02-08 18:02:00,2021-02-08
19635,A03-S235,Cordoba General Bustos,NB_IOT,Sin Asignar,Sin Asignar,Sin Asignar,XCBUST,MEDI,,ISM-9900,OA,2021-01-26 11:03:00,2021-01-26 11:03:00,2021-01-26 11:03:59,2021-01-26 11:12:00,2021-01-26 11:12:59,,-31.3969,-64.1754,A03,MOP,Huawei,OA,OA Completado,2021-01-26 14:15:40,,2021-01-22 17:11:08,2021-01-25 12:19:12,2021-01-25 12:19:21,2021-01-26 14:15:40,2021-01-25
19637,A03-S248,Cordoba Aeropuerto,NB_IOT,MATIAS EZEQUIEL,COSENTINO,M. COSENTINO,XCAERO,MEDI,,ISM-9902,OA,2021-03-03 12:13:59,2021-03-03 12:13:59,2021-03-03 14:10:00,2021-03-05 18:31:00,2021-03-08 10:21:00,,-31.3134,-64.2142,A03,MOP,Huawei,OA,OA Completado,2021-03-08 09:43:24,,2021-02-17 18:12:55,2021-02-17 18:13:02,2021-02-17 18:13:10,2021-03-08 09:43:24,2021-02-17
19641,A03-S446,Cordoba Campus Siglo Xxi,NB_IOT,Sin Asignar,Sin Asignar,Sin Asignar,XCCXXI,MEDI,,ISM-9944,OA,2020-11-25 16:03:59,2020-11-25 16:03:59,2021-01-27 15:22:00,2021-01-27 16:50:59,2021-01-28 12:04:59,,-31.3219,-64.2223,A03,MOP,Huawei,OA,OA Completado,2021-01-27 15:23:20,,2021-01-27 15:22:12,2021-01-27 15:22:28,2021-01-27 15:22:39,2021-01-27 15:23:20,2021-01-27
19646,A03-S291,Cordoba Palmar,NB_IOT,Sin Asignar,Sin Asignar,Sin Asignar,XCPALM,MEDI,,ISM-9949,OA,2020-11-25 15:54:59,2020-11-25 15:54:59,2021-01-28 11:01:59,2021-01-28 16:07:00,2021-01-28 16:27:59,,-31.3944,-64.1236,A03,MOP,Huawei,OA,OA Completado,2021-01-28 11:26:08,,2021-01-28 11:25:34,2021-01-28 11:25:40,2021-01-28 11:25:46,2021-01-28 11:26:08,2021-01-28
19649,A03-S053,Cordoba Alvear,NB_IOT,Sin Asignar,Sin Asignar,Sin Asignar,XCALVE,MEDI,,ISM-9952,OA,2020-11-13 11:55:00,2020-11-13 11:55:00,2021-01-21 15:02:59,2021-01-22 15:22:59,2021-01-22 15:24:59,,-31.4166,-64.1811,A03,MOP,Huawei,OA,OA Completado,2021-01-22 15:25:23,,2021-01-21 15:10:13,2021-01-21 15:10:33,2021-01-22 15:24:48,2021-01-22 15:25:23,2021-01-22
19653,A03-S473,Cordoba La Carbonada,NB_IOT,Sin Asignar,Sin Asignar,Sin Asignar,XCARBO,MEDI,,ISM-9956,OA,2020-11-19 12:42:59,2020-11-19 12:42:59,2021-01-27 15:49:00,2021-01-28 16:30:00,2021-01-28 16:34:00,,-31.4643,-64.1269,A03,MOP,Huawei,OA,OA Completado,2021-01-28 16:31:29,,2021-01-27 15:18:45,2021-01-27 15:38:11,2021-01-28 13:55:11,2021-01-28 16:31:29,2021-01-28
19655,A03-S064,Cordoba Shopping,NB_IOT,Sin Asignar,Sin Asignar,Sin Asignar,XCSHOP,MEDI,,ISM-9958,OA,2020-11-25 15:53:00,2020-11-25 15:53:00,2021-01-25 12:54:59,2021-01-25 15:27:59,2021-01-25 15:51:59,,-31.4116,-64.2073,A03,MOP,Huawei,OA,OA Completado,2021-01-25 15:42:25,,2021-01-25 12:53:19,2021-01-25 12:53:29,2021-01-25 15:39:38,2021-01-25 15:42:25,2021-01-25
19659,A03-S179,Cordoba Los Pinos,NB_IOT,Sin Asignar,Sin Asignar,Sin Asignar,XCPINO,MEDI,,ISM-9962,OA,2020-11-17 15:18:00,2020-11-17 15:18:00,2021-01-21 14:14:00,2021-01-25 14:51:00,2021-01-25 15:04:00,,-31.3905,-64.1448,A03,MOP,Huawei,OA,OA Completado,2021-01-25 14:55:31,,2021-01-21 14:13:13,2021-01-21 14:13:31,2021-01-25 11:25:31,2021-01-25 14:55:31,2021-01-25
19660,A03-S643,Cordoba Las Rosas Plaza,NB_IOT,MATIAS EZEQUIEL,COSENTINO,M. COSENTINO,XCLROS,MEDI,,ISM-9963,OA,2020-11-19 16:12:00,2020-11-19 16:12:00,2021-02-17 23:51:59,2021-03-03 12:00:00,2021-03-05 18:53:00,,-31.3927,-64.2209,A03,MOP,Huawei,OA,OA Completado,2021-03-08 09:43:24,,2021-02-17 18:14:11,2021-02-17 18:14:17,2021-02-17 18:14:30,2021-03-08 09:43:24,2021-02-17
19662,A03-S623,Julio De Vedia,NB_IOT,Sin Asignar,Sin Asignar,Sin Asignar,XCJDVE,MEDI,,ISM-9965,OA,2020-11-19 13:47:00,2020-11-19 13:47:00,2021-01-13 18:22:00,2021-01-14 09:24:00,2021-01-15 14:57:00,,-31.3853,-64.1427,A03,MOP,Huawei,OA,OA Completado,2021-01-17 02:43:14,,2021-01-13 17:15:50,2021-01-13 17:18:06,2021-01-13 17:18:16,2021-01-17 02:43:14,2021-01-13
19665,A03-S466,Cordoba Angelelli,NB_IOT,MATIAS EZEQUIEL,COSENTINO,M. COSENTINO,XCANGE,MEDI,,ISM-9968,OA,2020-11-19 12:35:00,2020-11-19 12:35:00,2021-02-17 23:51:59,2021-03-03 13:21:59,2021-03-05 18:51:59,,-31.5097,-64.2113,A03,MOP,Huawei,OA,OA Completado,2021-03-08 09:43:24,,2021-02-11 14:48:47,2021-02-11 14:48:51,2021-02-11 14:48:56,2021-03-08 09:43:24,2021-02-11
19666,A03-S059,Cordoba  Liceo,NB_IOT,Sin Asignar,Sin Asignar,Sin Asignar,XCLICE,MEDI,,ISM-9969,OA,2020-11-17 12:09:59,2020-11-17 12:09:59,2021-01-22 11:59:00,2021-01-22 12:36:59,2021-01-25 14:48:59,,-31.352,-64.1805,A03,MOP,Huawei,OA,OA Completado,2021-01-25 14:45:12,,2021-01-20 17:04:56,2021-01-22 12:19:50,2021-01-22 12:20:19,2021-01-25 14:45:12,2021-01-22
19667,A03-S259,Cordoba Jardin Espinosa,NB_IOT,Sin Asignar,Sin Asignar,Sin Asignar,XCJESP,MEDI,,ISM-9970,OA,2020-11-20 16:14:59,2020-11-20 16:14:59,2021-01-13 18:27:59,2021-01-14 09:35:00,2021-01-15 15:00:59,,-31.4555,-64.1812,A03,MOP,Huawei,OA,OA Completado,2021-01-17 02:46:46,,2021-01-13 17:28:09,2021-01-13 17:30:06,2021-01-13 17:31:26,2021-01-17 02:46:46,2021-01-13
19675,A03-S414,Cordoba Libertador Sur,NB_IOT,Sin Asignar,Sin Asignar,Sin Asignar,XCLIBS,MEDI,,ISM-9978,OA,2020-11-18 15:27:00,2020-11-18 15:27:00,2021-01-27 17:44:59,2021-01-27 18:04:59,2021-01-28 12:00:00,,-31.4781,-64.2206,A03,MOP,Huawei,OA,OA Completado,2021-01-28 11:49:13,,2021-01-27 17:33:15,2021-01-27 17:33:36,2021-01-27 17:33:46,2021-01-28 11:49:13,2021-01-27
19678,A03-S769,Cordoba Club Los Boulevares,NB_IOT,Sin Asignar,Sin Asignar,Sin Asignar,XCCBOU,MEDI,,ISM-9981,OA,2020-11-20 11:15:00,2020-11-20 11:15:00,2021-01-05 18:20:59,2021-01-06 10:48:00,2021-01-12 18:00:59,,-31.3433,-64.226,A03,MOP,Huawei,OA,OA Completado,2021-01-12 18:18:24,,2021-01-05 19:22:13,2021-01-05 19:22:39,2021-01-06 13:56:12,2021-01-12 18:18:24,2021-01-06
19679,A03-S075,Cordoba Arguello,NB_IOT,Sin Asignar,Sin Asignar,Sin Asignar,XCARGU,MEDI,,ISM-9983,OA,2020-11-20 15:56:59,2020-11-20 15:56:59,2020-12-24 11:24:00,2020-12-28 09:54:59,2021-01-15 14:46:00,,-31.3373,-64.2555,A03,MOP,Huawei,OA,OA Completado,2021-01-21 18:18:12,,2021-01-05 19:37:19,2021-01-11 16:42:48,2021-01-11 16:42:54,2021-01-21 18:18:12,2021-01-11
19682,A03-S138,Cordoba Santa Ana,NB_IOT,Sin Asignar,Sin Asignar,Sin Asignar,XCSANA,MEDI,,ISM-9985,OA,2020-11-17 13:48:59,2020-11-17 13:48:59,2021-01-05 18:33:59,2021-01-06 14:37:59,2021-01-12 18:13:00,,-31.4141,-64.2278,A03,MOP,Huawei,OA,OA Completado,2021-01-12 20:50:34,,2021-01-05 19:29:29,2021-01-05 19:29:50,2021-01-06 13:59:50,2021-01-12 20:50:34,2021-01-06
19694,A03-S622,Heroes De Vilcapugio,NB_IOT,Sin Asignar,Sin Asignar,Sin Asignar,XCHEVI,MEDI,,ISM-9997,OA,2020-11-19 13:45:59,2020-11-19 13:45:59,2021-01-05 18:08:00,2021-01-06 10:41:00,2021-01-12 16:48:59,,-31.3711,-64.1362,A03,MOP,Huawei,OA,OA Completado,2021-01-12 18:16:58,,2021-01-05 19:17:58,2021-01-05 19:18:47,2021-01-06 13:53:35,2021-01-12 18:16:58,2021-01-06
19695,A03-S621,Cordoba Renault,NB_IOT,Sin Asignar,Sin Asignar,Sin Asignar,XCRENA,MEDI,,ISM-9998,OA,2020-11-19 13:34:59,2020-11-19 13:34:59,2021-01-05 18:13:59,2021-01-06 10:45:00,2021-01-12 18:00:00,,-31.4642,-64.235,A03,MOP,Huawei,OA,OA Completado,2021-01-12 18:17:44,,2021-01-05 19:20:29,2021-01-05 19:20:48,2021-01-06 13:55:15,2021-01-12 18:17:44,2021-01-06
19698,A03-S495,Av Japon,NB_IOT,Sin Asignar,Sin Asignar,Sin Asignar,XCJAPO,MEDI,,ISM-10001,OA,2020-11-19 13:07:59,2020-11-19 13:07:59,2021-01-27 15:54:00,2021-01-28 16:30:59,2021-01-28 16:34:59,,-31.3353,-64.2019,A03,MOP,Huawei,OA,OA Completado,2021-01-28 16:31:53,,2021-01-27 15:18:53,2021-01-27 15:44:06,2021-01-28 13:55:17,2021-01-28 16:31:53,2021-01-28
19700,A03-S345,Cordoba Cofico,NB_IOT,Sin Asignar,Sin Asignar,Sin Asignar,XCCOFI,MEDI,,ISM-10003,OA,2020-11-18 12:44:00,2020-11-18 12:44:00,2021-01-13 18:36:00,2021-01-14 09:47:00,2021-01-15 15:06:00,,-31.3982,-64.1886,A03,MOP,Huawei,OA,OA Completado,2021-01-17 02:50:42,,2021-01-13 17:20:19,2021-01-13 17:20:37,2021-01-13 17:20:44,2021-01-17 02:50:42,2021-01-13
19702,A03-S240,Cordoba 20 De Julio,NB_IOT,Sin Asignar,Sin Asignar,Sin Asignar,XC20JU,MEDI,,ISM-10005,OA,2020-11-17 16:36:59,2020-11-17 16:36:59,2021-01-21 13:02:00,2021-01-22 12:27:59,2021-01-25 13:34:00,,-31.4096,-64.2685,A03,MOP,Huawei,OA,OA Completado,2021-01-25 13:24:57,,2021-01-21 12:53:30,2021-01-21 12:57:44,2021-01-22 11:49:30,2021-01-25 13:24:57,2021-01-22
19705,A03-S315,Cordoba Cerutti,NB_IOT,Sin Asignar,Sin Asignar,Sin Asignar,XCCERU,MEDI,,ISM-10008,OA,2020-11-18 11:39:59,2020-11-18 11:39:59,2021-01-13 18:33:00,2021-01-14 09:42:59,2021-01-15 15:02:59,,-31.3946,-64.1936,A03,MOP,Huawei,OA,OA Completado,2021-01-17 02:48:56,,2021-01-13 17:18:04,2021-01-13 17:18:21,2021-01-13 17:18:28,2021-01-17 02:48:56,2021-01-13
19706,A03-S108,Cordoba Hipodromo,NB_IOT,Sin Asignar,Sin Asignar,Sin Asignar,XCHIPO,MEDI,,ISM-10009,OA,2020-11-17 12:56:00,2020-11-17 12:56:00,2021-01-21 14:15:00,2021-01-25 14:53:00,2021-01-25 15:08:00,,-31.4463,-64.1888,A03,MOP,Huawei,OA,OA Completado,2021-01-25 14:59:16,,2021-01-21 14:15:03,2021-01-21 14:15:21,2021-01-25 11:31:00,2021-01-25 14:59:16,2021-01-25
19707,A03-S109,Cordoba Villa  Claret,NB_IOT,Sin Asignar,Sin Asignar,Sin Asignar,XCCLAR,MEDI,,ISM-10010,OA,2020-11-17 12:58:00,2020-11-17 12:58:00,2021-01-21 14:17:00,2021-01-25 14:55:00,2021-01-25 15:09:59,,-31.3556,-64.2398,A03,MOP,Huawei,OA,OA Completado,2021-01-25 11:38:08,,2021-01-21 14:16:27,2021-01-21 14:16:43,2021-01-25 11:34:51,2021-01-25 11:38:08,2021-01-25
19709,A03-S395,Cordoba Vulcan,NB_IOT,MATIAS EZEQUIEL,COSENTINO,M. COSENTINO,XCVULC,MEDI,,ISM-10012,OA,2020-11-18 13:25:59,2020-11-18 13:25:59,2021-02-17 23:51:59,2021-03-03 13:25:00,2021-03-05 18:51:59,,-31.3206,-64.2719,A03,MOP,Huawei,OA,OA Completado,2021-03-08 09:43:24,,2021-02-11 12:30:41,2021-02-11 12:30:56,2021-02-11 12:31:03,2021-03-08 09:43:24,2021-02-11
19714,A03-S600,CORDOBA DIEGO CALA CV,NB_IOT,Sin Asignar,Sin Asignar,Sin Asignar,XCDCAL,MEDI,,ISM-10017,OA,2020-11-19 13:30:59,2020-11-19 13:30:59,2021-01-27 15:24:59,2021-01-27 16:56:00,2021-01-28 12:06:59,,-31.4063,-64.2321,A03,MOP,Huawei,OA,OA Completado,2021-01-27 15:24:15,,2021-01-27 15:23:10,2021-01-27 15:23:29,2021-01-27 15:23:39,2021-01-27 15:24:15,2021-01-27
19715,A03-S244,Cordoba Yofre,NB_IOT,Sin Asignar,Sin Asignar,Sin Asignar,XCYOFR,MEDI,,ISM-10018,OA,2020-11-20 16:07:59,2020-11-20 16:07:59,2021-01-13 18:27:00,2021-01-14 09:33:00,2021-01-15 15:00:00,,-31.3775,-64.1358,A03,MOP,Huawei,OA,OA Completado,2021-01-17 02:46:03,,2021-01-13 17:28:03,2021-01-13 17:30:13,2021-01-13 17:31:33,2021-01-17 02:46:03,2021-01-13
19721,A03-S236,Cordoba Jardin,NB_IOT,Sin Asignar,Sin Asignar,Sin Asignar,XCJARD,MEDI,,ISM-10024,OA,2020-11-17 16:21:59,2020-11-17 16:21:59,2021-01-22 13:05:59,2021-01-22 15:11:00,2021-01-25 10:30:59,,-31.4442,-64.1639,A03,MOP,Huawei,OA,OA Completado,2021-01-25 10:22:25,,2021-01-22 12:53:43,2021-01-22 13:03:47,2021-01-22 13:04:03,2021-01-25 10:22:25,2021-01-22
19723,A03-S722,Cordoba Gamerman,NB_IOT,Sin Asignar,Sin Asignar,Sin Asignar,XCGABE,MEDI,,ISM-10026,OA,2020-11-20 10:29:00,2020-11-20 10:29:00,2021-01-27 17:21:59,2021-01-27 18:00:59,2021-01-28 12:47:00,,-31.4334,-64.1338,A03,MOP,Huawei,OA,OA Completado,2021-01-28 12:37:30,,2021-01-27 17:12:46,2021-01-27 17:12:52,2021-01-28 12:36:59,2021-01-28 12:37:30,2021-01-28
19725,A03-S445,Cordoba Soconcho,NB_IOT,Sin Asignar,Sin Asignar,Sin Asignar,XCSOCO,MEDI,,ISM-10028,OA,2020-11-19 11:37:00,2020-11-19 11:37:00,2021-01-28 10:41:59,2021-01-28 15:45:00,2021-01-28 16:36:59,,-31.4567,-64.1603,A03,MOP,Huawei,OA,OA Completado,2021-01-28 10:36:51,,2021-01-28 10:36:17,2021-01-28 10:36:24,2021-01-28 10:36:30,2021-01-28 10:36:51,2021-01-28
19727,A03-S060,Cordoba Ura Patricios,NB_IOT,Sin Asignar,Sin Asignar,Sin Asignar,XCPATR,MEDI,,ISM-10030,OA,2020-11-17 12:11:59,2020-11-17 12:11:59,2021-01-25 12:44:00,2021-01-25 15:17:00,2021-01-25 15:18:00,,-31.3758,-64.1529,A03,MOP,Huawei,OA,OA Completado,2021-01-25 15:26:01,,2021-01-25 12:54:42,2021-01-25 12:54:53,2021-01-25 12:54:59,2021-01-25 15:26:01,2021-01-25
19731,A03-S264,Cordoba Lockeed,NB_IOT,MATIAS EZEQUIEL,COSENTINO,M. COSENTINO,XCLOCK,MEDI,,ISM-10034,OA,2020-11-18 09:53:00,2020-11-18 09:53:00,2021-02-17 23:51:59,2021-03-03 13:18:00,2021-03-05 18:51:59,,-31.439,-64.2685,A03,MOP,Huawei,OA,OA Completado,2021-03-08 09:43:24,,2021-02-11 12:00:14,2021-02-11 12:00:29,2021-02-11 12:00:37,2021-03-08 09:43:24,2021-02-11
19732,A03-S449,Cordoba Milenica,NB_IOT,Sin Asignar,Sin Asignar,Sin Asignar,XCMILE,MEDI,,ISM-10035,OA,2020-11-19 11:48:59,2020-11-19 11:48:59,2021-01-27 15:42:00,2021-01-28 16:27:00,2021-01-28 16:32:59,,-31.3704,-64.221,A03,MOP,Huawei,OA,OA Completado,2021-01-28 16:29:28,,2021-01-27 15:18:59,2021-01-27 15:30:36,2021-01-28 13:53:02,2021-01-28 16:29:28,2021-01-28
19733,A03-S340,Cordoba Rivera Indarte,NB_IOT,Sin Asignar,Sin Asignar,Sin Asignar,XCRIVE,MEDI,,ISM-10036,OA,2020-11-18 12:29:00,2020-11-18 12:29:00,2021-01-27 14:39:00,2021-01-28 16:25:00,2021-01-28 16:32:59,,-31.3206,-64.2926,A03,MOP,Huawei,OA,OA Completado,2021-01-28 16:29:50,,2021-01-27 14:29:48,2021-01-27 14:29:57,2021-01-28 13:53:15,2021-01-28 16:29:50,2021-01-28
19736,A03-S632,Cordoba Buro,NB_IOT,Sin Asignar,Sin Asignar,Sin Asignar,XCBURO,MEDI,,ISM-10039,OA,2020-11-19 15:02:00,2020-11-19 15:02:00,2021-01-28 10:57:59,2021-01-28 15:49:59,2021-01-28 16:21:00,,-31.348,-64.2617,A03,MOP,Huawei,OA,OA Completado,2021-01-28 11:18:35,,2021-01-28 10:47:24,2021-01-28 11:10:49,2021-01-28 11:10:55,2021-01-28 11:18:35,2021-01-28
19737,A03-S447,Cordoba Circunvalacion Oeste,NB_IOT,Sin Asignar,Sin Asignar,Sin Asignar,XCCIRO,MEDI,,ISM-10040,OA,2020-11-19 11:39:59,2020-11-19 11:39:59,2021-01-27 14:46:00,2021-01-28 16:25:59,2021-01-28 16:32:59,,-31.456,-64.2497,A03,MOP,Huawei,OA,OA Completado,2021-01-28 16:30:13,,2021-01-27 14:36:19,2021-01-27 14:36:26,2021-01-28 13:53:36,2021-01-28 16:30:13,2021-01-28
19738,A03-S046,Cordoba Villa Paez,NB_IOT,Sin Asignar,Sin Asignar,Sin Asignar,XCPAEZ,MEDI,,ISM-10041,OA,2020-11-13 11:01:00,2020-11-13 11:01:00,2021-01-21 15:00:00,2021-01-22 15:20:00,2021-01-22 15:24:00,,-31.3943,-64.2098,A03,MOP,Huawei,OA,OA Completado,2021-01-22 15:22:45,,2021-01-21 15:05:07,2021-01-21 15:05:38,2021-01-22 15:21:43,2021-01-22 15:22:45,2021-01-22
19739,A03-S397,Cordoba Wall Mart Ruta 20,NB_IOT,Sin Asignar,Sin Asignar,Sin Asignar,XCWR20,MEDI,,ISM-10042,OA,2020-11-18 13:30:00,2020-11-18 13:30:00,2021-01-27 17:05:00,2021-01-27 17:57:00,2021-01-28 12:45:59,,-31.4317,-64.2435,A03,MOP,Huawei,OA,OA Completado,2021-01-28 12:38:00,,2021-01-27 16:56:14,2021-01-27 16:56:22,2021-01-28 12:37:37,2021-01-28 12:38:00,2021-01-28
19741,A03-S042,Cordoba Marques,NB_IOT,Sin Asignar,Sin Asignar,Sin Asignar,XCMARQ,MEDI,,ISM-10044,OA,2020-11-20 15:47:00,2020-11-20 15:47:00,2021-01-22 11:57:59,2021-01-22 12:35:00,2021-01-25 14:44:00,,-31.3696,-64.2065,A03,MOP,Huawei,OA,OA Completado,2021-01-25 14:34:53,,2021-01-20 17:05:02,2021-01-22 12:20:59,2021-01-22 12:21:13,2021-01-25 14:34:53,2021-01-22
19743,A03-S058,Cordoba  Aviones,NB_IOT,Sin Asignar,Sin Asignar,Sin Asignar,XCAVIO,MEDI,,ISM-10046,OA,2020-11-13 13:32:59,2020-11-13 13:32:59,2021-01-22 13:03:59,2021-01-22 15:08:00,2021-01-25 10:27:59,,-31.4335,-64.2395,A03,MOP,Huawei,OA,OA Completado,2021-01-25 10:17:39,,2021-01-22 13:05:15,2021-01-22 13:05:27,2021-01-22 13:06:06,2021-01-25 10:17:39,2021-01-22
19745,A03-S094,Cordoba Hipolito Yrigoyen,NB_IOT,Sin Asignar,Sin Asignar,Sin Asignar,XCIRIG,MEDI,,ISM-10048,OA,2020-11-17 12:49:59,2020-11-17 12:49:59,2021-01-22 12:15:00,2021-01-22 12:40:59,2021-01-25 12:35:00,,-31.4214,-64.1883,A03,MOP,Huawei,OA,OA Completado,2021-01-25 12:25:12,,2021-01-20 17:05:08,2021-01-22 12:21:42,2021-01-22 12:21:55,2021-01-25 12:25:12,2021-01-22
19746,A03-S423,Cordoba Villa Agur,NB_IOT,Sin Asignar,Sin Asignar,Sin Asignar,XCVAGU,MEDI,,ISM-10049,OA,2020-11-18 16:05:00,2020-11-18 16:05:00,2021-01-27 15:20:59,2021-01-27 16:48:59,2021-01-28 12:00:59,,-31.3707,-64.2349,A03,MOP,Huawei,OA,OA Completado,2021-01-27 15:25:27,,2021-01-27 15:24:31,2021-01-27 15:24:48,2021-01-27 15:24:57,2021-01-27 15:25:27,2021-01-27
19749,A03-S263,Cordoba Fincas Del Sur,NB_IOT,Sin Asignar,Sin Asignar,Sin Asignar,XCFISU,MEDI,,ISM-10052,OA,2020-11-18 09:49:59,2020-11-18 09:49:59,2021-01-13 18:29:59,2021-01-14 09:38:00,2021-01-15 15:02:00,,-31.4928,-64.1617,A03,MOP,Huawei,OA,OA Completado,2021-01-17 02:47:36,,2021-01-13 17:28:16,2021-01-13 17:30:20,2021-01-13 17:31:41,2021-01-17 02:47:36,2021-01-13
19750,A03-S793,Cordoba Orgaz,NB_IOT,Sin Asignar,Sin Asignar,Sin Asignar,XCORGZ,MEDI,,ISM-10053,OA,2020-11-20 12:45:00,2020-11-20 12:45:00,2021-01-27 17:50:00,2021-01-27 18:06:59,2021-01-28 12:11:59,,-31.4054,-64.2082,A03,MOP,Huawei,OA,OA Completado,2021-01-28 12:02:52,,2021-01-27 17:38:54,2021-01-27 17:39:16,2021-01-27 17:39:27,2021-01-28 12:02:52,2021-01-27
19751,A03-S386,Cordoba Patria,NB_IOT,Sin Asignar,Sin Asignar,Sin Asignar,XCAPAT,MEDI,,ISM-10054,OA,2020-11-18 13:09:59,2020-11-18 13:09:59,2021-01-27 17:30:00,2021-01-27 18:02:59,2021-01-28 11:57:00,,-31.4016,-64.1604,A03,MOP,Huawei,OA,OA Completado,2021-01-28 11:47:50,,2021-01-27 17:23:22,2021-01-27 17:24:37,2021-01-27 17:24:47,2021-01-28 11:47:50,2021-01-27
19753,A03-S776,Cordoba Capdevila,NB_IOT,Sin Asignar,Sin Asignar,Sin Asignar,XCCAPD,MEDI,,ISM-10056,OA,2020-11-20 12:22:00,2020-11-20 12:22:00,2021-01-27 15:27:00,2021-01-27 16:57:59,2021-01-28 12:08:00,,-31.378,-64.1652,A03,MOP,Huawei,OA,OA Completado,2021-01-27 15:26:42,,2021-01-27 15:25:51,2021-01-27 15:26:02,2021-01-27 15:26:12,2021-01-27 15:26:42,2021-01-27
19757,A03-S757,Cordoba Pinelo,NB_IOT,Sin Asignar,Sin Asignar,Sin Asignar,XCPINE,MEDI,,ISM-10060,OA,2020-11-20 10:54:59,2020-11-20 10:54:59,2021-01-28 11:15:00,2021-01-28 16:21:00,2021-01-28 16:29:00,,,,,MOP,Huawei,OA,OA Completado,2021-01-28 11:28:15,,2021-01-28 11:27:39,2021-01-28 11:27:44,2021-01-28 11:27:50,2021-01-28 11:28:15,2021-01-28
19759,A03-S740,Cordoba 11 de Septiembre,NB_IOT,Sin Asignar,Sin Asignar,Sin Asignar,XC11SE,MEDI,,ISM-10062,OA,2020-11-20 10:48:00,2020-11-20 10:48:00,2021-01-27 15:26:00,2021-01-27 16:57:00,2021-01-28 12:08:00,,-31.4562,-64.1481,A03,MOP,Huawei,OA,OA Completado,2021-01-27 15:28:08,,2021-01-27 15:26:55,2021-01-27 15:27:08,2021-01-27 15:27:37,2021-01-27 15:28:08,2021-01-27
19765,A03-S491,Illia,NB_IOT,Sin Asignar,Sin Asignar,Sin Asignar,XCILIA,MEDI,,ISM-10068,OA,2020-11-19 13:02:00,2020-11-19 13:02:00,2021-01-27 15:24:00,2021-01-27 16:54:00,2021-01-28 12:06:59,,-31.422,-64.1804,A03,MOP,Huawei,OA,OA Completado,2021-01-27 15:21:53,,2021-01-27 15:21:11,2021-01-27 15:21:18,2021-01-27 15:21:26,2021-01-27 15:21:53,2021-01-27
19766,A03-S960,Cordoba El Tala,NB_IOT,Sin Asignar,Sin Asignar,Sin Asignar,XCTALA,MEDI,,ISM-10069,OA,2020-11-20 15:36:59,2020-11-20 15:36:59,2021-01-28 11:15:59,2021-01-28 16:23:00,2021-01-28 16:30:00,,,,,MOP,Huawei,OA,OA Completado,2021-01-28 11:29:00,,2021-01-28 11:28:24,2021-01-28 11:28:29,2021-01-28 11:28:35,2021-01-28 11:29:00,2021-01-28
19770,A03-S639,Cordoba Matienzo,NB_IOT,Sin Asignar,Sin Asignar,Sin Asignar,XCMATI,MEDI,,ISM-10073,OA,2020-11-19 16:05:59,2020-11-19 16:05:59,2021-01-28 10:59:00,2021-01-28 15:51:59,2021-01-28 16:21:59,,,,,MOP,Huawei,OA,OA Completado,2021-01-28 11:19:46,,2021-01-28 11:19:04,2021-01-28 11:19:10,2021-01-28 11:19:16,2021-01-28 11:19:46,2021-01-28
19771,A03-S580,Cordoba Germania,NB_IOT,Sin Asignar,Sin Asignar,Sin Asignar,XCGERM,MEDI,,ISM-10074,OA,2020-11-19 13:27:00,2020-11-19 13:27:00,2021-01-28 10:43:59,2021-01-28 15:49:00,2021-01-28 16:38:00,,,,,MOP,Huawei,OA,OA Completado,2021-01-28 10:37:55,,2021-01-28 10:37:19,2021-01-28 10:37:25,2021-01-28 10:37:32,2021-01-28 10:37:55,2021-01-28
19772,A03-S336,Cordoba Propietarian,NB_IOT,Sin Asignar,Sin Asignar,Sin Asignar,XCPROP,MEDI,,ISM-10075,OA,2020-11-18 12:06:59,2020-11-18 12:06:59,2021-01-27 14:33:00,2021-01-28 16:34:59,2021-01-28 16:39:00,,-31.4015,-64.2258,A03,MOP,Huawei,OA,OA Completado,2021-01-28 16:30:53,,2021-01-27 14:23:43,2021-01-27 14:23:54,2021-01-28 13:53:43,2021-01-28 16:30:53,2021-01-28
19773,A03-S464,Cordoba Sta. Fe,NB_IOT,Sin Asignar,Sin Asignar,Sin Asignar,XCSTFE,MEDI,,ISM-10076,OA,2020-11-19 12:15:59,2020-11-19 12:15:59,2021-01-27 15:22:59,2021-01-27 16:52:59,2021-01-28 12:06:00,,,,,MOP,Huawei,OA,OA Completado,2021-01-27 15:20:43,,2021-01-27 15:20:04,2021-01-27 15:20:14,2021-01-27 15:20:20,2021-01-27 15:20:43,2021-01-27
19774,A03-S730,Cordoba Parque De La Vida,NB_IOT,Sin Asignar,Sin Asignar,Sin Asignar,XCPDLV,MEDI,,ISM-10077,OA,2020-11-20 10:43:00,2020-11-20 10:43:00,2021-01-27 16:07:59,2021-01-28 16:32:00,2021-01-28 16:36:00,,-31.4449,-64.212,A03,MOP,Huawei,OA,OA Completado,2021-01-28 16:32:18,,2021-01-27 15:19:06,2021-01-27 15:49:09,2021-01-28 13:55:24,2021-01-28 16:32:18,2021-01-28
19776,A03-S666,Cordoba Montironi,NB_IOT,Sin Asignar,Sin Asignar,Sin Asignar,XCMONT,MEDI,,ISM-10079,OA,2020-11-19 16:23:00,2020-11-19 16:23:00,2021-01-13 18:24:59,2021-01-14 09:29:59,2021-01-15 14:59:00,,-31.3921,-64.2045,A03,MOP,Huawei,OA,OA Completado,2021-01-17 02:44:52,,2021-01-13 17:21:13,2021-01-13 17:22:02,2021-01-13 17:22:13,2021-01-17 02:44:52,2021-01-13
19783,A03-S674,Cordoba Sofia Bozan,NB_IOT,Sin Asignar,Sin Asignar,Sin Asignar,XCSOBA,MEDI,,ISM-10086,OA,2020-11-20 10:03:59,2020-11-20 10:03:59,2021-01-28 10:59:59,2021-01-28 16:00:59,2021-01-28 16:21:59,,-31.3736,-64.1717,A03,MOP,Huawei,OA,OA Completado,2021-01-28 11:20:48,,2021-01-28 11:20:14,2021-01-28 11:20:19,2021-01-28 11:20:25,2021-01-28 11:20:48,2021-01-28
19785,A03-S262,Cordoba Valle Escondido,NB_IOT,Sin Asignar,Sin Asignar,Sin Asignar,XCVAES,MEDI,,ISM-10088,OA,2020-11-18 09:31:00,2020-11-18 09:31:00,2021-01-21 12:53:00,2021-01-22 12:22:59,2021-01-22 12:36:59,,-31.3747,-64.2861,A03,MOP,Huawei,OA,OA Completado,2021-01-22 12:29:36,,2021-01-21 12:49:56,2021-01-21 12:50:08,2021-01-22 12:28:54,2021-01-22 12:29:36,2021-01-22
19786,A03-S239,Cordoba Parque Horizonte,NB_IOT,Sin Asignar,Sin Asignar,Sin Asignar,XCHORI,MEDI,,ISM-10089,OA,2020-11-17 16:34:59,2020-11-17 16:34:59,2021-01-21 13:09:00,2021-01-22 12:29:59,2021-01-25 13:48:59,,-31.4626,-64.2075,A03,MOP,Huawei,OA,OA Completado,2021-01-25 13:40:13,,2021-01-21 12:59:48,2021-01-21 13:00:04,2021-01-22 11:48:29,2021-01-25 13:40:13,2021-01-22
19787,A03-S260,Cordoba Guiñazu,NB_IOT,Sin Asignar,Sin Asignar,Sin Asignar,XCGUIN,MEDI,,ISM-10090,OA,2020-11-20 16:16:00,2020-11-20 16:16:00,2021-01-21 13:12:59,2021-01-22 12:31:00,2021-01-25 13:52:00,,-31.3072,-64.1756,A03,MOP,Huawei,OA,OA Completado,2021-01-25 13:42:33,,2021-01-21 13:04:21,2021-01-21 13:04:40,2021-01-22 11:47:58,2021-01-25 13:42:33,2021-01-22
19789,A03-S418,Villa  Esquiu,NB_IOT,MATIAS EZEQUIEL,COSENTINO,M. COSENTINO,XVESQU,MEDI,,ISM-10092,OA,2020-11-18 15:51:59,2020-11-18 15:51:59,2021-02-17 23:51:59,2021-03-03 13:20:00,2021-03-05 18:51:59,,-31.3594,-64.1089,A03,MOP,Huawei,OA,OA Completado,2021-03-08 09:43:24,,2021-02-11 13:55:33,2021-02-11 13:55:50,2021-02-11 13:55:57,2021-03-08 09:43:24,2021-02-11
19794,A03-S110,Cordoba Observatorio,NB_IOT,Sin Asignar,Sin Asignar,Sin Asignar,XCOBSE,MEDI,,ISM-10097,OA,2020-11-17 13:09:00,2020-11-17 13:09:00,2021-01-22 13:05:00,2021-01-22 15:09:59,2021-01-25 10:39:00,,-31.4199,-64.1996,A03,MOP,Huawei,OA,OA Completado,2021-01-25 10:29:13,,2021-01-22 13:07:13,2021-01-22 13:07:25,2021-01-22 13:07:35,2021-01-25 10:29:13,2021-01-22
19795,A03-S467,Cordoba Ciudad Gama,NB_IOT,Sin Asignar,Sin Asignar,Sin Asignar,XCCGAM,MEDI,,ISM-10098,OA,2020-11-19 12:36:59,2020-11-19 12:36:59,2021-01-28 10:43:00,2021-01-28 15:47:00,2021-01-28 16:36:59,,-31.3973,-64.2458,A03,MOP,Huawei,OA,OA Completado,2021-01-28 10:38:53,,2021-01-28 10:38:20,2021-01-28 10:38:26,2021-01-28 10:38:32,2021-01-28 10:38:53,2021-01-28
19796,A03-S400,Cordoba Centro Civico,NB_IOT,Sin Asignar,Sin Asignar,Sin Asignar,XCCIVI,MEDI,,ISM-10099,OA,2020-11-20 16:25:59,2020-11-20 16:25:59,2021-02-22 17:06:59,2021-02-23 09:24:59,2021-02-24 08:24:00,,-31.4185,-64.1738,A03,MOP,Huawei,OA,OA Completado,2021-02-24 08:14:56,,2021-02-22 16:26:28,2021-02-22 16:26:37,2021-02-23 08:41:10,2021-02-24 08:14:56,2021-02-23
19797,A03-S430,Cordoba Instituto,NB_IOT,MATIAS EZEQUIEL,COSENTINO,M. COSENTINO,XCINST,MEDI,,ISM-10100,OA,2020-11-19 10:32:59,2020-11-19 10:32:59,2021-02-17 23:51:59,2021-03-04 15:47:00,2021-03-05 18:47:00,,-31.3841,-64.1807,A03,MOP,Huawei,OA,OA Completado,2021-03-08 09:43:24,,2021-02-11 14:42:02,2021-02-11 14:42:05,2021-02-11 14:42:11,2021-03-08 09:43:24,2021-02-11
19799,A03-S406,Cordoba Providencia,NB_IOT,Sin Asignar,Sin Asignar,Sin Asignar,XCPROV,MEDI,,ISM-10102,OA,2020-11-18 15:06:00,2020-11-18 15:06:00,2021-01-27 17:39:59,2021-01-27 18:04:00,2021-01-28 11:57:59,,-31.3966,-64.198,A03,MOP,Huawei,OA,OA Completado,2021-01-28 11:49:47,,2021-01-27 17:28:44,2021-01-27 17:29:09,2021-01-27 17:32:06,2021-01-28 11:49:47,2021-01-27
19801,A03-S265,Cordoba Inaudi,NB_IOT,Sin Asignar,Sin Asignar,Sin Asignar,XCINAU,MEDI,,ISM-10104,OA,2020-11-20 16:18:00,2020-11-20 16:18:00,2021-01-28 11:01:00,2021-01-28 16:03:00,2021-01-28 16:25:00,,-31.4806,-64.2018,A03,MOP,Huawei,OA,OA Completado,2021-01-28 11:21:52,,2021-01-28 11:21:16,2021-01-28 11:21:21,2021-01-28 11:21:26,2021-01-28 11:21:52,2021-01-28
19804,A03-S633,Talleres,NB_IOT,Sin Asignar,Sin Asignar,Sin Asignar,XCTALL,MEDI,,ISM-10107,OA,2020-11-19 15:06:59,2020-11-19 15:06:59,2021-01-13 18:22:59,2021-01-14 09:26:00,2021-01-15 14:57:59,,-31.4489,-64.1761,A03,MOP,Huawei,OA,OA Completado,2021-01-17 02:43:58,,2021-01-13 17:19:01,2021-01-13 17:19:13,2021-01-13 17:19:19,2021-01-17 02:43:58,2021-01-13
19810,A03-S057,Cordoba Cor Luque,NB_IOT,Sin Asignar,Sin Asignar,Sin Asignar,XCLUQU,MEDI,,ISM-10113,OA,2020-11-13 12:02:59,2020-11-13 12:02:59,2021-01-21 15:00:59,2021-01-22 15:22:00,2021-01-22 15:24:59,,-31.4378,-64.1332,A03,MOP,Huawei,OA,OA Completado,2021-01-22 15:24:10,,2021-01-21 15:07:54,2021-01-21 15:08:15,2021-01-22 15:23:32,2021-01-22 15:24:10,2021-01-22
19811,A03-S061,Cordoba Alta Cordoba,NB_IOT,MATIAS EZEQUIEL,COSENTINO,M. COSENTINO,XCALTA,MEDI,,ISM-10114,OA,2020-11-17 12:15:59,2020-11-17 12:15:59,2021-02-17 23:51:59,2021-03-04 15:47:00,2021-03-05 18:47:00,,-31.3932,-64.1863,A03,MOP,Huawei,OA,OA Completado,2021-03-08 09:43:24,,2021-02-11 14:54:18,2021-02-11 14:54:24,2021-02-11 14:54:29,2021-03-08 09:43:24,2021-02-11
19812,A03-S819,Cordoba Los Polacos,NB_IOT,Sin Asignar,Sin Asignar,Sin Asignar,XCPOLA,MEDI,,ISM-10115,OA,2020-11-20 13:27:59,2020-11-20 13:27:59,2021-01-27 17:01:59,2021-01-28 16:34:00,2021-01-28 16:38:00,,-31.3405,-64.2318,A03,MOP,Huawei,OA,OA Completado,2021-01-28 16:32:41,,2021-01-27 16:50:15,2021-01-27 16:50:22,2021-01-28 13:55:30,2021-01-28 16:32:41,2021-01-28
19813,A03-S278,Cordoba Minetti,NB_IOT,Sin Asignar,Sin Asignar,Sin Asignar,XCMINE,MEDI,,ISM-10116,OA,2020-11-18 10:05:00,2020-11-18 10:05:00,2021-01-13 18:31:59,2021-01-14 09:40:59,2021-01-15 15:02:59,,-31.4483,-64.2188,A03,MOP,Huawei,OA,OA Completado,2021-01-15 15:12:38,,2021-01-13 17:16:59,2021-01-13 17:17:17,2021-01-13 17:17:25,2021-01-15 15:12:38,2021-01-13
19814,A03-S302,Cordoba Ferial II (Mudanza),NB_IOT,Sin Asignar,Sin Asignar,Sin Asignar,XCFERI,MEDI,,ISM-10117,OA,2020-11-18 11:26:00,2020-11-18 11:26:00,2021-01-11 16:43:59,2021-01-12 09:49:59,2021-01-12 18:11:59,,-31.3707,-64.2602,A03,MOP,Huawei,OA,OA Completado,2021-01-12 20:49:19,,2021-01-05 19:37:58,2021-01-11 16:46:44,2021-01-11 16:47:05,2021-01-12 20:49:19,2021-01-11
19817,A03-S139,Cordoba Lequipe,NB_IOT,Sin Asignar,Sin Asignar,Sin Asignar,XCLEQU,MEDI,,ISM-10120,OA,2020-11-17 13:52:00,2020-11-17 13:52:00,2021-01-05 18:31:59,2021-01-06 14:39:00,2021-01-12 18:06:00,,-31.3426,-64.2111,A03,MOP,Huawei,OA,OA Completado,2021-01-12 20:47:56,,2021-01-05 19:28:22,2021-01-05 19:28:45,2021-01-06 13:59:13,2021-01-12 20:47:56,2021-01-06
19820,A03-S261,Cordoba Lomas De La Carolina,NB_IOT,Sin Asignar,Sin Asignar,Sin Asignar,XCLCAR,MEDI,,ISM-10123,OA,2020-11-18 09:11:59,2020-11-18 09:11:59,2021-01-22 13:07:00,2021-01-22 15:13:00,2021-01-25 10:34:59,,-31.3568,-64.315,A03,MOP,Huawei,OA,OA Completado,2021-01-25 10:25:19,,2021-01-22 13:08:29,2021-01-22 13:08:40,2021-01-22 13:08:52,2021-01-25 10:25:19,2021-01-22
19822,A03-S304,Cordoba Parque Velez Sarsfield,NB_IOT,Sin Asignar,Sin Asignar,Sin Asignar,XCVSAR,MEDI,,ISM-10125,OA,2020-11-18 11:37:59,2020-11-18 11:37:59,2021-01-28 11:12:59,2021-01-28 16:18:00,2021-01-28 16:27:59,,-31.4373,-64.2048,A03,MOP,Huawei,OA,OA Completado,2021-01-28 11:25:23,,2021-01-28 11:24:52,2021-01-28 11:24:57,2021-01-28 11:25:02,2021-01-28 11:25:23,2021-01-28
19826,A03-S286,Cordoba Obispo Salguero,NB_IOT,Sin Asignar,Sin Asignar,Sin Asignar,XCSALG,MEDI,,ISM-10129,OA,2020-11-18 11:15:59,2020-11-18 11:15:59,2021-01-28 11:01:59,2021-01-28 16:05:00,2021-01-28 16:25:00,,-31.4265,-64.1827,A03,MOP,Huawei,OA,OA Completado,2021-01-28 11:24:42,,2021-01-28 11:24:08,2021-01-28 11:24:13,2021-01-28 11:24:19,2021-01-28 11:24:42,2021-01-28
19827,A03-S206,Cordoba Villa Cornu,NB_IOT,Sin Asignar,Sin Asignar,Sin Asignar,XCCORN,MEDI,,ISM-10130,OA,2020-11-17 15:36:59,2020-11-17 15:36:59,2021-01-21 14:57:00,2021-01-22 15:18:00,2021-01-22 15:22:00,,-31.3072,-64.2777,A03,MOP,Huawei,OA,OA Completado,2021-01-22 15:20:47,,2021-01-21 15:01:48,2021-01-21 15:02:12,2021-01-22 15:19:02,2021-01-22 15:20:47,2021-01-22
19828,A03-S335,Cordoba Maipu,NB_IOT,Sin Asignar,Sin Asignar,Sin Asignar,XCMAIP,MEDI,,ISM-10131,OA,2020-11-18 12:04:59,2020-11-18 12:04:59,2021-01-13 18:35:00,2021-01-14 09:45:00,2021-01-15 15:04:59,,-31.4329,-64.1579,A03,MOP,Huawei,OA,OA Completado,2021-01-17 02:49:43,,2021-01-13 17:19:17,2021-01-13 17:19:36,2021-01-13 17:19:44,2021-01-17 02:49:43,2021-01-13
19831,A03-S735,Cordoba Cartel San Isidro,NB_IOT,Sin Asignar,Sin Asignar,Sin Asignar,XCCSAN,MEDI,,ISM-10134,OA,2020-11-20 10:45:59,2020-11-20 10:45:59,2021-01-28 11:15:00,2021-01-28 16:20:00,2021-01-28 16:29:00,,,,,MOP,Huawei,OA,OA Completado,2021-01-28 11:23:57,,2021-01-28 11:23:17,2021-01-28 11:23:23,2021-01-28 11:23:35,2021-01-28 11:23:57,2021-01-28
19835,CPU308,Los Dos Chinos 2,NB_IOT,JUAN PABLO,PIANELLO,J. PIANELLO,C2C2,AMBA,,ISM-10244,OA,2020-11-18 14:57:59,2020-11-18 14:57:59,2021-10-26 17:37:59,2021-10-28 20:21:59,2021-10-29 10:32:00,,-34.6258,-58.3759,CPU,MOP,Huawei,OA,OA Completado,2021-10-05 15:47:18,,2021-09-30 15:07:26,2021-09-30 15:07:27,2021-10-05 15:44:07,2021-10-05 15:47:18,2021-10-30
19836,CPU025,8 De Octubre,NB_IOT,JUAN PABLO,PIANELLO,J. PIANELLO,C8OC,AMBA,,ISM-10245,OA,2020-11-17 13:00:59,2020-11-17 13:00:59,2021-10-26 17:37:59,2021-10-28 19:25:59,2021-10-29 10:36:59,,-34.5985,-58.3873,CPU,MOP,Huawei,OA,OA Completado,2021-10-05 15:47:18,,2021-09-29 14:22:52,2021-09-29 14:22:52,2021-09-30 09:43:55,2021-10-05 15:47:18,2021-09-30
19837,CPU236,9 De Julio,NB_IOT,Sin Asignar,Sin Asignar,Sin Asignar,C9JU,AMBA,,ISM-10246,OA,2020-11-18 13:56:00,2020-11-18 13:56:00,2021-01-13 18:11:59,2021-01-14 08:57:59,2021-01-15 14:53:00,,-34.6215,-58.3818,CPU,MOP,Huawei,OA,OA Completado,2021-01-15 15:08:33,,2021-01-13 17:28:23,2021-01-13 17:30:28,2021-01-13 17:31:49,2021-01-15 15:08:33,2021-01-13
19838,CPU269,Amancio Alcorta,NB_IOT,Sin Asignar,Sin Asignar,Sin Asignar,CAAL,AMBA,,ISM-10247,OA,2020-11-18 14:33:00,2020-11-18 14:33:00,2021-01-27 16:43:00,2021-01-27 17:50:00,2021-01-28 12:09:59,,-34.6482,-58.4043,CPU,MOP,Huawei,OA,OA Completado,2021-01-27 17:31:11,,2021-01-27 17:30:32,2021-01-27 17:30:41,2021-01-27 17:30:47,2021-01-27 17:31:11,2021-01-27
19839,CPU475,Almagro Don Bosco,NB_IOT,JUAN PABLO,PIANELLO,J. PIANELLO,CABOSC,AMBA,,ISM-10248,OA,2020-11-19 10:25:59,2020-11-19 10:25:59,2021-10-26 17:37:59,2021-10-28 20:35:59,2021-10-29 10:30:59,,,,,MOP,Huawei,OA,OA Completado,2021-10-05 15:47:18,,2021-10-01 10:23:40,2021-10-01 10:23:40,2021-10-05 15:44:07,2021-10-05 15:47:18,2021-09-30
19840,CPU406,Almagro Centro,NB_IOT,MATIAS EZEQUIEL,COSENTINO,M. COSENTINO,CAGC,AMBA,,ISM-10249,OA,2020-11-18 15:49:59,2020-11-18 15:49:59,2021-02-17 23:51:59,2021-03-04 15:45:00,2021-03-05 18:47:59,,-34.6115,-58.4216,CPU,MOP,Huawei,OA,OA Completado,2021-03-08 09:43:25,,2021-02-10 10:22:32,2021-02-10 10:22:50,2021-02-12 17:02:14,2021-03-08 09:43:25,2021-02-12
19841,CPU679,AUSA Gral. Paz,NB_IOT,MATIAS EZEQUIEL,COSENTINO,M. COSENTINO,CAGPTP,AMBA,,ISM-10250,OA,2020-11-19 12:18:00,2020-11-19 12:18:00,2021-02-17 23:51:59,2021-03-04 15:38:59,2021-03-05 18:47:59,,-34.5347,-58.4636,CPU,MOP,Huawei,OA,OA Completado,2021-03-08 09:43:25,,2021-02-18 17:33:11,2021-02-18 17:33:32,2021-02-18 17:33:39,2021-03-08 09:43:25,2021-02-18
19842,CPU464,Artes Graficas Rioplatenses,NB_IOT,JUAN PABLO,PIANELLO,J. PIANELLO,CAGR,AMBA,,ISM-10251,OA,2020-11-19 10:23:59,2020-11-19 10:23:59,2021-10-26 17:37:59,2021-10-28 20:15:59,2021-10-29 10:32:59,,-34.6496,-58.4244,CPU,MOP,Huawei,OA,OA Completado,2021-10-05 15:47:18,,2021-09-30 17:07:46,2021-09-30 17:07:46,2021-10-05 15:44:07,2021-10-05 15:47:18,2021-09-30
19844,CPU274,Argentinos Juniors,NB_IOT,MATIAS EZEQUIEL,COSENTINO,M. COSENTINO,CAJU,AMBA,,ISM-10253,OA,2020-11-18 14:46:59,2020-11-18 14:46:59,2021-02-17 23:53:00,2021-03-04 16:09:00,2021-03-05 18:44:00,,-34.6051,-58.4724,CPU,MOP,Huawei,OA,OA Completado,2021-03-08 09:43:25,,2021-02-11 14:45:22,2021-02-11 14:45:28,2021-02-11 14:45:35,2021-03-08 09:43:25,2021-02-11
19845,CPU494,Alberdi Este,NB_IOT,JUAN PABLO,PIANELLO,J. PIANELLO,CALBEE,AMBA,,ISM-10254,OA,2020-11-19 10:57:00,2020-11-19 10:57:00,2021-10-26 17:37:59,2021-10-28 20:24:59,2021-10-29 10:32:00,,-34.6219,-58.4284,CPU,MOP,Huawei,OA,OA Completado,2021-10-05 15:47:18,,2021-10-01 10:23:40,2021-10-01 10:23:40,2021-10-05 15:44:07,2021-10-05 15:47:18,2021-09-30
19846,CPU070,Alcorta,NB_IOT,JUAN PABLO,PIANELLO,J. PIANELLO,CALC,AMBA,,ISM-10255,OA,2020-11-17 14:05:00,2020-11-17 14:05:00,2021-10-26 17:39:00,2021-10-28 21:20:59,2021-10-29 10:25:00,,-34.5727,-58.4042,CPU,MOP,Huawei,OA,OA Completado,2021-10-05 15:47:18,,2021-09-29 16:36:52,2021-09-29 16:36:52,2021-09-30 09:43:55,2021-10-05 15:47:18,2021-09-30
19847,CPU177,Alberdi,NB_IOT,JUAN PABLO,PIANELLO,J. PIANELLO,CALD,AMBA,,ISM-10256,OA,2020-11-18 10:14:59,2020-11-18 10:14:59,2021-10-26 17:39:00,2021-10-28 20:48:00,2021-10-29 10:30:00,,-34.6626,-58.5102,CPU,MOP,Huawei,OA,OA Completado,2021-10-05 15:47:19,,2021-09-30 11:21:40,2021-09-30 11:21:40,2021-10-05 15:44:07,2021-10-05 15:47:19,2021-09-30
19848,CPU263,Almagro,NB_IOT,JUAN PABLO,PIANELLO,J. PIANELLO,CALM,AMBA,,ISM-10257,OA,2020-11-18 14:28:59,2020-11-18 14:28:59,2021-10-26 17:37:59,2021-10-28 20:01:00,2021-10-29 10:34:00,,-34.6205,-58.4234,CPU,MOP,Huawei,OA,OA Completado,2021-10-05 15:47:19,,2021-09-30 14:20:35,2021-09-30 14:20:35,2021-10-05 15:44:07,2021-10-05 15:47:19,2021-09-30
19849,CPU162,Albariño,NB_IOT,Sin Asignar,Sin Asignar,Sin Asignar,CALN,AMBA,,ISM-10258,OA,2020-11-18 10:09:59,2020-11-18 10:09:59,2021-01-21 18:00:59,2021-01-22 10:43:59,2021-01-22 13:09:00,,-34.6478,-58.4995,CPU,MOP,Huawei,OA,OA Completado,2021-01-22 13:11:08,,2021-01-21 18:03:20,2021-01-21 18:03:39,2021-01-21 18:03:58,2021-01-22 13:11:08,2021-01-21
19851,CPU400,Alsina,NB_IOT,JUAN PABLO,PIANELLO,J. PIANELLO,CALS,AMBA,,ISM-10260,OA,2020-11-18 15:49:59,2020-11-18 15:49:59,2021-10-26 17:37:59,2021-10-28 19:41:00,2021-10-29 10:36:00,,-34.6121,-58.3926,CPU,MOP,Huawei,OA,OA Completado,2021-10-05 15:47:19,,2021-09-30 16:50:23,2021-09-30 16:50:23,2021-10-05 15:44:08,2021-10-05 15:47:19,2021-09-30
19852,CPU820,Alvear Palace Hotel,NB_IOT,JUAN PABLO,PIANELLO,J. PIANELLO,CALVPH,AMBA,,ISM-10261,OA,2020-11-19 15:00:00,2020-11-19 15:00:00,2021-10-26 17:39:00,2021-10-28 21:17:00,2021-10-29 10:25:59,,,,,MOP,Huawei,OA,OA Completado,2021-10-05 15:47:19,,2021-10-01 17:04:13,2021-10-01 17:04:13,2021-10-05 15:44:08,2021-10-05 15:47:19,2021-09-30
19853,CPU131,Ambrosetti,NB_IOT,JUAN PABLO,PIANELLO,J. PIANELLO,CAMB,AMBA,,ISM-10262,OA,2020-11-18 09:56:00,2020-11-18 09:56:00,2021-10-26 17:39:00,2021-10-28 21:18:00,2021-10-29 10:25:59,,-34.6128,-58.4379,CPU,MOP,Huawei,OA,OA Completado,2021-10-05 15:47:19,,2021-09-30 10:07:13,2021-09-30 10:07:13,2021-10-05 15:44:08,2021-10-05 15:47:19,2021-09-30
19854,CPU027,Amia,NB_IOT,JUAN PABLO,PIANELLO,J. PIANELLO,CAMI,AMBA,,ISM-10263,RFI,2020-11-17 13:03:00,2020-11-17 13:03:00,,,,,-34.6026,-58.3972,CPU,MOP,Huawei,OA,OA Completado,2021-10-05 15:47:19,,2021-09-29 14:22:52,2021-09-29 14:22:52,2021-09-30 09:43:55,2021-10-05 15:47:19,2021-09-30
19855,CPU680,AUSA Parque Avellaneda,NB_IOT,JUAN PABLO,PIANELLO,J. PIANELLO,CAPATP,AMBA,,ISM-10264,OA,2020-11-19 12:18:00,2020-11-19 12:18:00,2021-10-26 17:37:59,2021-10-28 20:30:00,2021-10-29 10:32:00,,-34.6488,-58.4747,CPU,MOP,Huawei,OA,OA Completado,2021-10-05 15:47:19,,2021-10-01 11:43:46,2021-10-01 11:43:46,2021-10-05 15:44:08,2021-10-05 15:47:19,2021-09-30
19856,CPU061,Aeroparque,NB_IOT,Sin Asignar,Sin Asignar,Sin Asignar,CAPQ,AMBA,,ISM-10265,OA,2020-11-17 14:01:00,2020-11-17 14:01:00,2021-01-21 18:02:59,2021-01-22 10:45:59,2021-01-22 13:09:00,,-34.5565,-58.414,CPU,MOP,Huawei,OA,OA Completado,2021-01-22 13:11:51,,2021-01-21 18:05:01,2021-01-21 18:05:19,2021-01-21 18:05:27,2021-01-22 13:11:51,2021-01-21
19857,CPU126,Aranguren,NB_IOT,Sin Asignar,Sin Asignar,Sin Asignar,CARA,AMBA,,ISM-10266,OA,2020-11-18 09:54:00,2020-11-18 09:54:00,2021-01-21 18:04:59,2021-01-22 10:50:59,2021-01-22 13:09:59,,-34.6252,-58.4717,CPU,MOP,Huawei,OA,OA Completado,2021-01-22 13:12:32,,2021-01-21 18:06:23,2021-01-21 18:06:40,2021-01-21 18:06:48,2021-01-22 13:12:32,2021-01-21
19858,CPU682,Ausa Riachuelo,NB_IOT,JUAN PABLO,PIANELLO,J. PIANELLO,CARLTP,AMBA,,ISM-10267,OA,2020-11-19 12:20:59,2020-11-19 12:20:59,2021-10-26 17:37:59,2021-10-28 19:48:59,2021-10-29 10:34:59,,-34.6732,-58.436,CPU,MOP,Huawei,OA,OA Completado,2021-10-05 15:47:19,,2021-10-01 11:43:46,2021-10-01 11:43:46,2021-10-05 15:44:08,2021-10-05 15:47:19,2021-09-30
19859,CPU681,AUSA Terminal Dellepiane,NB_IOT,Sin Asignar,Sin Asignar,Sin Asignar,CATDEL,AMBA,,ISM-10268,OA,2020-11-19 12:18:59,2020-11-19 12:18:59,2021-01-11 16:12:59,2021-01-12 09:29:00,2021-01-12 16:41:00,,-34.6511,-58.466,CPU,MOP,Huawei,OA,OA Completado,2021-01-12 18:21:22,,2021-01-05 19:35:42,2021-01-11 16:10:35,2021-01-11 16:10:42,2021-01-12 18:21:22,2021-01-11
19860,CPU057,Atlas,NB_IOT,JUAN PABLO,PIANELLO,J. PIANELLO,CATL,AMBA,,ISM-10269,OA,2020-11-17 13:59:00,2020-11-17 13:59:00,2021-10-26 17:37:59,2021-10-28 19:00:00,2021-10-29 10:39:00,,-34.5596,-58.4604,CPU,MOP,Huawei,OA,OA Completado,2021-10-05 15:47:19,,2021-09-29 16:36:52,2021-09-29 16:36:52,2021-09-30 09:43:55,2021-10-05 15:47:19,2021-09-30
19861,CPU165,Av. Del Trabajo,NB_IOT,JUAN PABLO,PIANELLO,J. PIANELLO,CATR,AMBA,,ISM-10270,OA,2020-11-18 10:11:00,2020-11-18 10:11:00,2021-10-26 17:37:59,2021-10-28 20:01:00,2021-10-29 10:34:00,,-34.6465,-58.4621,CPU,MOP,Huawei,OA,OA Completado,2021-10-05 15:47:19,,2021-09-30 11:21:40,2021-09-30 11:21:40,2021-10-05 15:44:08,2021-10-05 15:47:19,2021-09-30
19862,CPU180,Autodromo,NB_IOT,Sin Asignar,Sin Asignar,Sin Asignar,CAUM,AMBA,,ISM-10271,OA,2020-11-18 10:16:00,2020-11-18 10:16:00,2021-01-21 13:14:59,2021-01-22 12:33:00,2021-01-25 14:01:00,,-34.6958,-58.4722,CPU,MOP,Huawei,OA,OA Completado,2021-01-25 13:52:20,,2021-01-21 13:06:04,2021-01-21 13:06:18,2021-01-22 11:47:20,2021-01-25 13:52:20,2021-01-22
19863,CPU408,Bacacay,NB_IOT,MATIAS EZEQUIEL,COSENTINO,M. COSENTINO,CBCY,AMBA,,ISM-10272,OA,2020-11-18 15:51:00,2020-11-18 15:51:00,2021-02-17 23:53:00,2021-03-04 16:07:00,2021-03-05 18:44:00,,-34.6294,-58.4735,CPU,MOP,Huawei,OA,OA Completado,2021-03-08 09:43:25,,2021-02-10 10:57:34,2021-02-10 10:57:51,2021-02-12 17:20:24,2021-03-08 09:43:25,2021-02-12
19864,CPU106,Batalla De Pari,NB_IOT,JUAN PABLO,PIANELLO,J. PIANELLO,CBDP,AMBA,,ISM-10273,OA,2020-11-18 09:24:59,2020-11-18 09:24:59,2021-10-26 17:39:00,2021-10-28 20:46:59,2021-10-29 10:30:00,,-34.5995,-58.4523,CPU,MOP,Huawei,OA,OA Completado,2021-10-05 15:47:20,,2021-09-29 16:15:37,2021-09-29 16:15:37,2021-09-30 09:43:55,2021-10-05 15:47:20,2021-09-30
19865,CPU135,Belgrano,NB_IOT,JUAN PABLO,PIANELLO,J. PIANELLO,CBEL,AMBA,,ISM-10274,OA,2020-11-18 09:58:00,2020-11-18 09:58:00,2021-10-26 17:37:59,2021-10-28 20:26:00,2021-10-29 10:32:00,,-34.6159,-58.4176,CPU,MOP,Huawei,OA,OA Completado,2021-10-05 15:47:20,,2021-09-30 10:07:13,2021-09-30 10:07:14,2021-10-05 15:44:08,2021-10-05 15:47:20,2021-09-30
19866,CPU290,Bajo Flores,NB_IOT,JUAN PABLO,PIANELLO,J. PIANELLO,CBFL,AMBA,,ISM-10275,OA,2020-11-18 14:53:00,2020-11-18 14:53:00,2021-10-26 17:37:59,2021-10-28 18:54:59,2021-10-29 10:39:59,,-34.6429,-58.4478,CPU,MOP,Huawei,OA,OA Completado,2021-10-05 15:47:20,,2021-09-30 15:07:27,2021-09-30 15:07:27,2021-10-05 15:44:08,2021-10-05 15:47:20,2021-09-30
19867,CPU224,Barrio Gral Savio,NB_IOT,Sin Asignar,Sin Asignar,Sin Asignar,CBGSTP,AMBA,,ISM-10276,OA,2020-11-18 13:52:00,2020-11-18 13:52:00,2021-01-22 12:15:59,2021-01-25 15:13:00,2021-01-25 15:18:00,,-34.6854,-58.4606,CPU,MOP,Huawei,OA,OA Completado,2021-01-25 15:25:12,,2021-01-20 17:05:14,2021-01-22 12:22:15,2021-01-25 12:31:23,2021-01-25 15:25:12,2021-01-25
19868,CPU240,Billinghurst,NB_IOT,MATIAS EZEQUIEL,COSENTINO,M. COSENTINO,CBLL,AMBA,,ISM-10277,OA,2020-11-18 13:57:00,2020-11-18 13:57:00,2021-02-17 23:53:00,2021-03-03 14:42:59,2021-03-05 18:51:59,,-34.6033,-58.4153,CPU,MOP,Huawei,OA,OA Completado,2021-03-08 09:43:25,,2021-02-10 09:45:58,2021-02-10 09:46:14,2021-02-12 14:04:52,2021-03-08 09:43:25,2021-02-12
19869,CPU734,Cv Liniers,NB_IOT,JUAN PABLO,PIANELLO,J. PIANELLO,CBLNRS,AMBA,,ISM-10278,OA,2020-11-19 13:18:00,2020-11-19 13:18:00,2021-10-26 17:37:59,2021-10-28 19:12:00,2021-10-29 10:38:00,,-34.643,-58.521,CPU,MOP,Huawei,OA,OA Completado,2021-10-05 15:47:20,,2021-10-01 12:39:23,2021-10-01 12:39:23,2021-10-05 15:44:08,2021-10-05 15:47:20,2021-09-30
19870,CPU138,Bolivar,NB_IOT,Sin Asignar,Sin Asignar,Sin Asignar,CBLV,AMBA,,ISM-10279,OA,2020-11-18 09:58:59,2020-11-18 09:58:59,2021-01-21 13:27:00,2021-01-21 14:26:59,2021-01-25 11:30:59,,-34.6184,-58.3725,CPU,MOP,Huawei,OA,OA Completado,2021-01-25 11:21:20,,2021-01-21 14:08:55,2021-01-21 14:09:15,2021-01-21 14:09:25,2021-01-25 11:21:20,2021-01-21
19871,CPU284,Ace Botanico,NB_IOT,MATIAS EZEQUIEL,COSENTINO,M. COSENTINO,CBOC,AMBA,,ISM-10280,OA,2020-11-18 14:51:59,2020-11-18 14:51:59,2021-02-17 23:53:00,2021-03-04 15:49:00,2021-03-05 18:45:59,,-34.5807,-58.4082,CPU,MOP,Huawei,OA,OA Completado,2021-03-08 09:43:25,,2021-02-18 17:31:41,2021-02-18 17:32:03,2021-02-18 17:32:11,2021-03-08 09:43:25,2021-02-18
19872,CPU154,Boedo,NB_IOT,JUAN PABLO,PIANELLO,J. PIANELLO,CBOE,AMBA,,ISM-10281,OA,2020-11-18 10:07:59,2020-11-18 10:07:59,2021-10-26 17:39:00,2021-10-28 21:13:59,2021-10-29 10:25:59,,-34.6323,-58.4299,CPU,MOP,Huawei,OA,OA Completado,2021-10-05 15:47:20,,2021-09-30 11:13:26,2021-09-30 11:13:26,2021-10-05 15:44:08,2021-10-05 15:47:20,2021-09-30
19873,CPU082,Botanico,NB_IOT,MATIAS EZEQUIEL,COSENTINO,M. COSENTINO,CBOT,AMBA,,ISM-10282,OA,2020-11-17 14:08:00,2020-11-17 14:08:00,2021-02-17 23:53:00,2021-03-04 16:11:00,2021-03-05 18:44:00,,-34.583,-58.4192,CPU,MOP,Huawei,OA,OA Completado,2021-03-08 09:43:25,,2021-02-12 13:44:50,2021-02-12 13:44:55,2021-02-12 13:44:59,2021-03-08 09:43:25,2021-02-12
19874,CPU128,Boyaca,NB_IOT,MATIAS EZEQUIEL,COSENTINO,M. COSENTINO,CBOY,AMBA,,ISM-10283,OA,2020-11-18 09:54:59,2020-11-18 09:54:59,2021-02-17 23:51:59,2021-03-04 15:45:59,2021-03-05 18:47:00,,-34.6224,-58.4604,CPU,MOP,Huawei,OA,OA Completado,2021-03-08 09:43:25,,2021-02-18 14:50:48,2021-02-18 14:50:53,2021-02-18 14:50:57,2021-03-08 09:43:25,2021-02-18
19875,CPU503,Barrio Piedrabuena Norte,NB_IOT,JUAN PABLO,PIANELLO,J. PIANELLO,CBPN,AMBA,,ISM-10284,OA,2020-11-19 10:59:00,2020-11-19 10:59:00,2021-10-26 17:39:00,2021-10-28 21:09:59,2021-10-29 10:27:00,,-34.6769,-58.4897,CPU,MOP,Huawei,OA,OA Completado,2021-10-05 15:47:20,,2021-10-01 10:23:40,2021-10-01 10:23:40,2021-10-05 15:44:08,2021-10-05 15:47:20,2021-09-30
19876,CPU401,Caba 2014 - 21,NB_IOT,JUAN PABLO,PIANELLO,J. PIANELLO,CBPQ,AMBA,,ISM-10285,OA,2020-11-18 15:49:59,2020-11-18 15:49:59,2021-10-26 17:37:59,2021-10-28 20:08:00,2021-10-29 10:32:59,,-34.5798,-58.3993,CPU,MOP,Huawei,OA,OA Completado,2021-10-05 15:47:20,,2021-09-30 16:50:23,2021-09-30 16:50:23,2021-10-05 15:44:09,2021-10-05 15:47:20,2021-09-30
19877,CPU322,Barracas 2,NB_IOT,JUAN PABLO,PIANELLO,J. PIANELLO,CBR2,AMBA,,ISM-10286,OA,2020-11-18 15:06:00,2020-11-18 15:06:00,2021-10-26 17:37:59,2021-10-28 19:54:59,2021-10-29 10:34:59,,-34.6446,-58.3788,CPU,MOP,Huawei,OA,OA Completado,2021-10-05 15:47:20,,2021-09-30 16:31:13,2021-09-30 16:31:13,2021-10-05 15:44:09,2021-10-05 15:47:20,2021-10-30
19878,CPU023,Embajada Brasil,NB_IOT,Sin Asignar,Sin Asignar,Sin Asignar,CBRA,AMBA,,ISM-10287,OA,2020-11-17 13:00:00,2020-11-17 13:00:00,2021-01-22 13:09:59,2021-01-22 15:17:00,2021-01-25 10:16:00,,-34.5942,-58.3838,CPU,MOP,Huawei,OA,OA Completado,2021-01-25 10:07:29,,2021-01-22 13:13:24,2021-01-22 13:13:31,2021-01-22 13:13:44,2021-01-25 10:07:29,2021-01-22
19879,CPU451,Barracas Este,NB_IOT,Sin Asignar,Sin Asignar,Sin Asignar,CBRE,AMBA,,ISM-10288,OA,2020-11-19 10:20:00,2020-11-19 10:20:00,2021-01-11 16:09:59,2021-01-12 09:24:59,2021-01-12 16:34:59,,-34.6476,-58.3686,CPU,MOP,Huawei,OA,OA Completado,2021-01-12 18:20:40,,2021-01-05 19:35:17,2021-01-11 16:09:18,2021-01-11 16:09:28,2021-01-12 18:20:40,2021-01-11
19880,CPU650,Bucarelli,NB_IOT,SEBASTIAN,ANGELERI,S. ANGELERI,CBUC,AMBA,,ISM-10289,OA,2020-11-19 12:09:59,2020-11-19 12:09:59,2021-10-26 17:37:59,2021-10-28 19:25:59,2021-10-29 10:36:59,,-34.588,-58.4774,CPU,MOP,Huawei,OA,OA Completado,2021-10-06 12:05:58,,2021-10-01 11:09:41,2021-10-01 11:09:41,2021-10-05 15:44:09,2021-10-06 12:05:58,2021-09-30
19882,CPU001,Calle 15,NB_IOT,JUAN PABLO,PIANELLO,J. PIANELLO,CC15,AMBA,,ISM-10292,OA,2020-11-17 12:27:00,2020-11-17 12:27:00,2021-10-26 17:37:59,2021-10-28 20:06:59,2021-10-29 10:32:59,,-34.5818,-58.3758,CPU,MOP,Huawei,OA,OA Completado,2021-10-05 15:47:20,,2021-09-29 14:22:53,2021-09-29 14:22:53,2021-09-30 09:43:55,2021-10-05 15:47:20,2021-09-30
19883,CPU134,Caballito 2,NB_IOT,JUAN PABLO,PIANELLO,J. PIANELLO,CCAB,AMBA,,ISM-10293,OA,2020-11-18 09:58:00,2020-11-18 09:58:00,2021-10-26 17:39:00,2021-10-28 21:02:00,2021-10-29 10:27:59,,-34.6132,-58.4255,CPU,MOP,Huawei,OA,OA Completado,2021-10-05 15:47:20,,2021-09-30 10:07:14,2021-09-30 10:07:14,2021-10-05 15:44:09,2021-10-05 15:47:20,2021-09-30
19884,CPU533,Carrefour Agronomia,NB_IOT,JUAN PABLO,PIANELLO,J. PIANELLO,CCAG,AMBA,,ISM-10294,OA,2020-11-19 11:05:00,2020-11-19 11:05:00,2021-10-26 17:39:00,2021-10-28 20:57:59,2021-10-29 10:29:00,,-34.5952,-58.4748,CPU,MOP,Huawei,OA,OA Completado,2021-10-05 15:47:21,,2021-10-01 10:23:41,2021-10-01 10:23:41,2021-10-05 15:44:09,2021-10-05 15:47:21,2021-09-30
19885,CPU014,Camara,NB_IOT,Sin Asignar,Sin Asignar,Sin Asignar,CCAM,AMBA,,ISM-10295,OA,2020-11-17 12:49:59,2020-11-17 12:49:59,2021-09-28 10:27:00,2021-10-27 12:18:00,2021-10-29 10:39:59,,-34.6068,-58.3705,CPU,MOP,Huawei,OA,OA Completado,2021-09-28 10:11:34,,2021-09-28 10:08:19,2021-09-28 10:08:48,2021-09-28 10:09:17,2021-09-28 10:11:34,2021-09-30
19886,CPU054,Capdevila,NB_IOT,JUAN PABLO,PIANELLO,J. PIANELLO,CCAP,AMBA,,ISM-10296,OA,2020-11-17 13:57:59,2020-11-17 13:57:59,2021-10-26 17:37:59,2021-10-28 19:43:00,2021-10-29 10:36:00,,-34.5692,-58.4905,CPU,MOP,Huawei,OA,OA Completado,2021-10-05 15:47:21,,2021-09-29 15:54:01,2021-09-29 15:54:01,2021-10-05 15:44:09,2021-10-05 15:47:21,2021-09-30
19887,CPU232,Cazadores,NB_IOT,JUAN PABLO,PIANELLO,J. PIANELLO,CCAZ,AMBA,,ISM-10297,OA,2020-11-18 13:54:00,2020-11-18 13:54:00,2021-10-26 17:39:00,2021-10-28 21:00:00,2021-10-29 10:27:59,,-34.5549,-58.4438,CPU,MOP,Huawei,OA,OA Completado,2021-10-05 15:47:21,,2021-09-30 12:40:13,2021-09-30 12:40:13,2021-10-05 15:44:09,2021-10-05 15:47:21,2021-09-30
19888,CPU219,Corporacion Buenos Aires Sur,NB_IOT,Sin Asignar,Sin Asignar,Sin Asignar,CCBATP,AMBA,,ISM-10298,OA,2020-11-18 13:45:00,2020-11-18 13:45:00,2021-01-22 09:24:59,2021-01-22 10:59:00,2021-01-25 12:29:00,,-34.666,-58.4387,CPU,MOP,Huawei,OA,OA Completado,2021-01-25 12:19:28,,2021-01-20 17:05:20,2021-01-22 12:23:45,2021-01-22 12:23:56,2021-01-25 12:19:28,2021-01-22
19890,CPU141,Carlos Calvo,NB_IOT,JUAN PABLO,PIANELLO,J. PIANELLO,CCCV,AMBA,,ISM-10300,OA,2020-11-18 10:02:00,2020-11-18 10:02:00,2021-10-26 17:39:00,2021-10-28 21:02:00,2021-10-29 10:27:59,,-34.6252,-58.425,CPU,MOP,Huawei,OA,OA Completado,2021-10-05 15:47:21,,2021-09-30 10:17:17,2021-09-30 10:17:17,2021-10-05 15:44:09,2021-10-05 15:47:21,2021-09-30
19891,CPU220,Cinco Esquinas,NB_IOT,SEBASTIAN,ANGELERI,S. ANGELERI,CCEQ,AMBA,,ISM-10301,OA,2020-11-18 13:50:00,2020-11-18 13:50:00,2021-10-26 17:39:00,2021-10-28 20:57:00,2021-10-29 10:29:00,,-34.6581,-58.4789,CPU,MOP,Huawei,OA,OA Completado,2021-10-06 12:05:58,,2021-09-30 12:40:13,2021-09-30 12:40:13,2021-10-05 15:44:09,2021-10-06 12:05:58,2021-09-30
19893,CPU307,Charcas 2,NB_IOT,MATIAS EZEQUIEL,COSENTINO,M. COSENTINO,CCH2,AMBA,,ISM-10303,OA,2020-11-18 14:57:00,2020-11-18 14:57:00,2021-02-17 23:51:59,2021-03-04 15:27:59,2021-03-05 18:49:00,,-34.5927,-58.4135,CPU,MOP,Huawei,OA,OA Completado,2021-03-08 09:43:25,,2021-02-10 10:46:10,2021-02-10 10:46:15,2021-02-12 13:45:06,2021-03-08 09:43:25,2021-02-12
19894,CPU362,Charcas 3,NB_IOT,JUAN PABLO,PIANELLO,J. PIANELLO,CCH3,AMBA,,ISM-10304,OA,2020-11-18 15:27:00,2020-11-18 15:27:00,2021-10-26 17:39:00,2021-10-28 21:22:00,2021-10-29 10:25:00,,-34.5927,-58.4093,CPU,MOP,Huawei,OA,OA Completado,2021-10-05 15:47:21,,2021-09-30 16:45:30,2021-09-30 16:45:30,2021-10-05 15:44:09,2021-10-05 15:47:21,2021-09-30
19895,CPU089,Chacarita,NB_IOT,JUAN PABLO,PIANELLO,J. PIANELLO,CCHC,AMBA,,ISM-10305,OA,2020-11-17 14:10:00,2020-11-17 14:10:00,2021-10-26 17:39:00,2021-10-28 21:02:59,2021-10-29 10:27:59,,-34.5856,-58.4531,CPU,MOP,Huawei,OA,OA Completado,2021-10-05 15:47:21,,2021-09-29 16:24:47,2021-09-29 16:24:47,2021-09-30 09:43:55,2021-10-05 15:47:21,2021-09-30
19896,CPU137,Chile,NB_IOT,JUAN PABLO,PIANELLO,J. PIANELLO,CCHI,AMBA,,ISM-10306,OA,2020-11-18 09:58:59,2020-11-18 09:58:59,2021-10-26 17:39:00,2021-10-28 21:11:00,2021-10-29 10:27:00,,-34.6151,-58.3796,CPU,MOP,Huawei,OA,OA Completado,2021-10-05 15:47:21,,2021-09-30 10:17:17,2021-09-30 10:17:17,2021-10-05 15:44:09,2021-10-05 15:47:21,2021-09-30
19897,CPU616,Chacarita Norte,NB_IOT,JUAN PABLO,PIANELLO,J. PIANELLO,CCHN,AMBA,,ISM-10307,OA,2020-11-19 12:04:59,2020-11-19 12:04:59,2021-10-26 17:39:00,2021-10-28 20:57:00,2021-10-29 10:29:00,,-34.5791,-58.4563,CPU,MOP,Huawei,OA,OA Completado,2021-10-05 15:47:21,,2021-10-01 11:09:41,2021-10-01 11:09:41,2021-10-05 15:44:10,2021-10-05 15:47:21,2021-09-30
19898,CPU228,Chivilcoy,NB_IOT,MATIAS EZEQUIEL,COSENTINO,M. COSENTINO,CCHY,AMBA,,ISM-10308,OA,2020-11-18 13:52:59,2020-11-18 13:52:59,2021-02-17 23:53:59,2021-03-04 16:16:59,2021-03-05 18:42:00,,-34.5951,-58.5085,CPU,MOP,Huawei,OA,OA Completado,2021-03-08 09:43:25,,2021-02-18 14:02:56,2021-02-18 14:03:00,2021-02-18 14:03:05,2021-03-08 09:43:25,2021-02-18
19899,CPU116,Cid Campeador,NB_IOT,JUAN PABLO,PIANELLO,J. PIANELLO,CCID,AMBA,,ISM-10309,OA,2020-11-18 09:49:59,2020-11-18 09:49:59,2021-10-26 17:39:00,2021-10-28 21:09:59,2021-10-29 10:27:00,,-34.6086,-58.4495,CPU,MOP,Huawei,OA,OA Completado,2021-10-05 15:47:21,,2021-09-30 10:46:46,2021-09-30 10:46:46,2021-10-05 15:44:10,2021-10-05 15:47:21,2021-09-30
19900,CPU222,Ciudad Oculta,NB_IOT,MATIAS EZEQUIEL,COSENTINO,M. COSENTINO,CCIO,AMBA,,ISM-10310,OA,2020-11-18 13:50:59,2020-11-18 13:50:59,2021-02-17 23:53:00,2021-03-04 16:14:00,2021-03-05 18:42:59,,-34.6701,-58.4887,CPU,MOP,Huawei,OA,OA Completado,2021-03-08 09:43:26,,2021-02-18 17:36:14,2021-02-18 17:36:32,2021-02-18 17:36:38,2021-03-08 09:43:26,2021-02-18
19901,CPU044,Club Ciudad,NB_IOT,JUAN PABLO,PIANELLO,J. PIANELLO,CCIU,AMBA,,ISM-10311,OA,2020-11-17 13:52:59,2020-11-17 13:52:59,2021-10-26 17:37:59,2021-10-28 19:30:00,2021-10-29 10:36:59,,-34.543,-58.4584,CPU,MOP,Huawei,OA,OA Completado,2021-10-05 15:47:21,,2021-09-29 15:04:50,2021-09-29 15:04:50,2021-09-30 09:43:55,2021-10-05 15:47:21,2021-09-30
19902,CPU393,Club Liniers,NB_IOT,JUAN PABLO,PIANELLO,J. PIANELLO,CCLI,AMBA,,ISM-10312,OA,2020-11-18 15:47:59,2020-11-18 15:47:59,2021-10-26 17:39:00,2021-10-28 21:08:00,2021-10-29 10:27:00,,-34.6435,-58.5255,CPU,MOP,Huawei,OA,OA Completado,2021-10-05 15:47:22,,2021-09-30 16:50:23,2021-09-30 16:50:23,2021-10-05 15:44:10,2021-10-05 15:47:22,2021-09-30
19903,CPU532,Carrefour Mataderos,NB_IOT,Sin Asignar,Sin Asignar,Sin Asignar,CCMT,AMBA,,ISM-10313,OA,2020-11-19 11:05:00,2020-11-19 11:05:00,2021-01-11 14:55:59,2021-01-12 09:13:00,2021-01-12 16:30:59,,-34.6638,-58.5145,CPU,MOP,Huawei,OA,OA Completado,2021-01-12 18:16:13,,2021-01-05 19:34:27,2021-01-11 14:38:48,2021-01-11 14:38:59,2021-01-12 18:16:13,2021-01-11
19904,CPU409,Cachimayo,NB_IOT,MATIAS EZEQUIEL,COSENTINO,M. COSENTINO,CCMY,AMBA,,ISM-10314,OA,2020-11-18 15:51:00,2020-11-18 15:51:00,2021-02-17 23:53:00,2021-03-04 16:09:59,2021-03-05 18:44:00,,-34.6245,-58.4419,CPU,MOP,Huawei,OA,OA Completado,2021-03-08 09:43:26,,2021-02-17 15:14:57,2021-02-17 15:15:17,2021-02-17 17:35:30,2021-03-08 09:43:26,2021-02-17
19905,CPU617,Conde,NB_IOT,JUAN PABLO,PIANELLO,J. PIANELLO,CCNDTP,AMBA,,ISM-10315,OA,2020-11-19 12:06:00,2020-11-19 12:06:00,2021-10-26 17:39:00,2021-10-28 21:00:00,2021-10-29 10:27:59,,-34.5771,-58.4517,CPU,MOP,Huawei,OA,OA Completado,2021-10-05 15:47:22,,2021-10-01 11:09:41,2021-10-01 11:09:42,2021-10-05 15:44:10,2021-10-05 15:47:22,2021-09-30
19906,CPU246,Costanera Norte,NB_IOT,JUAN PABLO,PIANELLO,J. PIANELLO,CCNO,AMBA,,ISM-10316,OA,2020-11-18 13:59:59,2020-11-18 13:59:59,2021-10-26 17:37:59,2021-10-28 20:39:59,2021-10-29 10:30:59,,-34.5499,-58.4308,CPU,MOP,Huawei,OA,OA Completado,2021-10-05 15:47:22,,2021-09-30 12:40:13,2021-09-30 12:40:14,2021-10-05 15:44:10,2021-10-05 15:47:22,2021-09-30
19907,CPU276,Constitucion 2,NB_IOT,JUAN PABLO,PIANELLO,J. PIANELLO,CCO2,AMBA,,ISM-10317,OA,2020-11-18 14:51:00,2020-11-18 14:51:00,2021-10-26 17:37:59,2021-10-28 19:50:59,2021-10-29 10:34:59,,-34.6249,-58.3901,CPU,MOP,Huawei,OA,OA Completado,2021-10-05 15:47:22,,2021-09-30 15:07:27,2021-09-30 15:07:27,2021-10-05 15:44:10,2021-10-05 15:47:22,2021-09-30
19908,CPU107,Crespo,NB_IOT,JUAN PABLO,PIANELLO,J. PIANELLO,CCRE,AMBA,,ISM-10318,OA,2020-11-18 09:27:00,2020-11-18 09:27:00,2021-10-26 17:39:00,2021-10-28 21:00:59,2021-10-29 10:27:59,,-34.6014,-58.4407,CPU,MOP,Huawei,OA,OA Completado,2021-10-05 15:47:22,,2021-09-29 16:15:37,2021-09-29 16:15:37,2021-09-30 09:43:55,2021-10-05 15:47:22,2021-09-30
19909,CPU011,Correo,NB_IOT,MATIAS EZEQUIEL,COSENTINO,M. COSENTINO,CCRR,AMBA,,ISM-10319,OA,2020-11-17 12:47:59,2020-11-17 12:47:59,2021-02-11 10:41:59,2021-03-03 12:00:59,2021-03-05 18:53:00,,-34.6031,-58.3707,CPU,MOP,Huawei,OA,OA Completado,2021-03-08 09:43:26,,2021-02-11 10:33:42,2021-02-11 10:33:49,2021-02-11 10:33:55,2021-03-08 09:43:26,2021-02-11
19910,CPU149,Carrasco,NB_IOT,JUAN PABLO,PIANELLO,J. PIANELLO,CCRS,AMBA,,ISM-10320,OA,2020-11-18 10:05:00,2020-11-18 10:05:00,2021-10-26 17:37:59,2021-10-28 19:57:00,2021-10-29 10:34:00,,-34.6339,-58.4891,CPU,MOP,Huawei,OA,OA Completado,2021-10-05 15:47:22,,2021-09-30 11:13:26,2021-09-30 11:13:26,2021-10-05 15:44:10,2021-10-05 15:47:22,2021-09-30
19911,CPU323,Clarin Sede Central,NB_IOT,MATIAS EZEQUIEL,COSENTINO,M. COSENTINO,CCSC,AMBA,,ISM-10321,OA,2020-11-18 15:06:00,2020-11-18 15:06:00,2021-02-17 23:53:00,2021-03-04 15:49:59,2021-03-05 18:45:59,,-34.6293,-58.3746,CPU,MOP,Huawei,OA,OA Completado,2021-03-08 09:43:26,,2021-02-17 16:51:44,2021-02-17 16:51:47,2021-02-17 16:51:58,2021-03-08 09:43:26,2021-02-17
19912,CPU317,Catalinas Sur,NB_IOT,SEBASTIAN,ANGELERI,S. ANGELERI,CCTS,AMBA,,ISM-10322,RFA,2020-11-18 15:00:59,2020-11-18 15:00:59,2021-10-26 17:39:00,,,,-34.5988,-58.3713,CPU,MOP,Huawei,OA,OA Completado,2021-10-06 12:05:58,,2021-09-30 16:31:13,2021-09-30 16:31:13,2021-10-05 15:44:10,2021-10-06 12:05:58,2021-10-30
19913,CPU086,Constituyentes,NB_IOT,Sin Asignar,Sin Asignar,Sin Asignar,CCTY,AMBA,,ISM-10323,OA,2020-11-17 14:10:00,2020-11-17 14:10:00,2021-02-03 17:21:59,2021-02-04 08:21:00,2021-02-05 13:52:59,,-34.5894,-58.4843,CPU,MOP,Huawei,OA,OA Completado,2021-02-08 13:14:09,,2021-02-03 17:19:58,2021-02-03 17:20:05,2021-02-03 17:20:14,2021-02-08 13:14:09,2021-02-03
19914,CPU358,Carrefour Villa Devoto,NB_IOT,JUAN PABLO,PIANELLO,J. PIANELLO,CCVD,AMBA,,ISM-10324,OA,2020-11-18 15:27:00,2020-11-18 15:27:00,2021-10-26 17:37:59,2021-10-28 19:59:59,2021-10-29 10:34:00,,-34.6112,-58.5163,CPU,MOP,Huawei,OA,OA Completado,2021-10-05 15:47:22,,2021-09-30 16:45:30,2021-09-30 16:45:30,2021-10-05 15:44:10,2021-10-05 15:47:22,2021-09-30
19915,CPU017,Derecho,NB_IOT,Sin Asignar,Sin Asignar,Sin Asignar,CDCH,AMBA,,ISM-10325,OA,2020-11-17 12:51:59,2020-11-17 12:51:59,2021-01-13 18:20:00,2021-01-14 09:20:59,2021-01-15 14:55:59,,-34.5821,-58.392,CPU,MOP,Huawei,OA,OA Completado,2021-01-15 15:11:39,,2021-01-13 17:15:46,2021-01-13 17:16:03,2021-01-13 17:16:12,2021-01-15 15:11:39,2021-01-13
19916,CPU159,Dock Sud,NB_IOT,JUAN PABLO,PIANELLO,J. PIANELLO,CDCK,AMBA,,ISM-10326,OA,2020-11-18 10:09:00,2020-11-18 10:09:00,2021-10-26 17:37:59,2021-10-28 19:43:00,2021-10-29 10:36:00,,-34.634,-58.3532,CPU,MOP,Huawei,OA,OA Completado,2021-10-05 15:47:22,,2021-09-30 11:13:26,2021-09-30 11:13:27,2021-10-05 15:44:10,2021-10-05 15:47:22,2021-09-30
19917,CPU335,Departamento Central De Policia,NB_IOT,JUAN PABLO,PIANELLO,J. PIANELLO,CDCP,AMBA,,ISM-10327,OA,2020-11-18 15:22:59,2020-11-18 15:22:59,2021-10-26 17:39:00,2021-10-28 21:04:59,2021-10-29 10:27:59,,-34.6137,-58.3874,CPU,MOP,Huawei,OA,OA Completado,2021-10-05 15:47:22,,2021-09-30 16:31:14,2021-09-30 16:31:14,2021-10-05 15:44:10,2021-10-05 15:47:22,2021-09-30
19918,CPU016,Defensa,NB_IOT,Sin Asignar,Sin Asignar,Sin Asignar,CDEF,AMBA,,ISM-10328,OA,2020-11-17 12:51:00,2020-11-17 12:51:00,2021-01-11 16:14:59,2021-01-12 09:33:59,2021-01-12 16:41:59,,-34.6126,-58.3721,CPU,MOP,Huawei,OA,OA Completado,2021-01-12 18:22:01,,2021-01-05 19:36:08,2021-01-11 16:11:37,2021-01-11 16:11:45,2021-01-12 18:22:01,2021-01-11
19919,CPU572,Deheza,NB_IOT,MATIAS EZEQUIEL,COSENTINO,M. COSENTINO,CDEHEZ,AMBA,,ISM-10329,OA,2020-11-19 11:59:00,2020-11-19 11:59:00,2021-02-17 23:53:00,2021-03-04 16:09:00,2021-03-05 18:44:00,,,,,MOP,Huawei,OA,OA Completado,2021-03-08 09:43:26,,2021-02-11 13:53:15,2021-02-11 13:53:29,2021-02-11 13:53:35,2021-03-08 09:43:26,2021-02-11
19920,CPU173,Deportivo Español,NB_IOT,JUAN PABLO,PIANELLO,J. PIANELLO,CDES,AMBA,,ISM-10330,OA,2020-11-18 10:14:00,2020-11-18 10:14:00,2021-10-26 17:37:59,2021-10-28 20:30:59,2021-10-29 10:30:59,,-34.6585,-58.4698,CPU,MOP,Huawei,OA,OA Completado,2021-10-05 15:47:23,,2021-09-30 11:21:40,2021-09-30 11:21:40,2021-10-05 15:44:11,2021-10-05 15:47:23,2021-09-30
19921,CPU112,Devoto,NB_IOT,JUAN PABLO,PIANELLO,J. PIANELLO,CDEV,AMBA,,ISM-10331,OA,2020-11-18 09:38:59,2020-11-18 09:38:59,2021-10-26 17:39:00,2021-10-28 20:57:59,2021-10-29 10:29:00,,-34.6155,-58.51,CPU,MOP,Huawei,OA,OA Completado,2021-10-05 15:47:23,,2021-09-30 10:46:46,2021-09-30 10:46:46,2021-10-05 15:44:11,2021-10-05 15:47:23,2021-09-30
19922,CPU163,Directorio,NB_IOT,JUAN PABLO,PIANELLO,J. PIANELLO,CDIC,AMBA,,ISM-10332,OA,2020-11-18 10:11:00,2020-11-18 10:11:00,2021-10-26 17:39:00,2021-10-28 20:59:00,2021-10-29 10:27:59,,-34.6491,-58.484,CPU,MOP,Huawei,OA,OA Completado,2021-10-05 15:47:23,,2021-09-30 11:13:27,2021-09-30 11:13:27,2021-10-05 15:44:11,2021-10-05 15:47:23,2021-09-30
19923,CPU304,Diagonal Norte,NB_IOT,JUAN PABLO,PIANELLO,J. PIANELLO,CDIN,AMBA,,ISM-10333,OA,2020-11-18 14:57:00,2020-11-18 14:57:00,2021-10-26 17:37:59,2021-10-28 19:39:59,2021-10-29 10:36:00,,-34.6057,-58.377,CPU,MOP,Huawei,OA,OA Completado,2021-10-05 15:47:23,,2021-09-30 15:07:27,2021-09-30 15:07:27,2021-10-05 15:44:11,2021-10-05 15:47:23,2021-10-30
19924,CPU139,Dique 1,NB_IOT,MATIAS EZEQUIEL,COSENTINO,M. COSENTINO,CDIQ,AMBA,,ISM-10334,OA,2020-11-18 15:04:00,2020-11-18 15:04:00,2021-02-17 23:53:00,2021-03-04 16:09:00,2021-03-05 18:44:00,,-34.6176,-58.368,CPU,MOP,Huawei,OA,OA Completado,2021-03-08 09:37:50,,2021-02-12 12:10:20,2021-02-12 12:10:24,2021-02-12 12:10:29,2021-03-08 09:37:50,2021-02-12
19925,CPU620,Calderon De La Barca 2,NB_IOT,JUAN PABLO,PIANELLO,J. PIANELLO,CDL2,AMBA,,ISM-10335,OA,2020-11-19 12:06:59,2020-11-19 12:06:59,2021-10-26 17:37:59,2021-10-28 19:56:00,2021-10-29 10:34:59,,-34.6306,-58.5032,CPU,MOP,Huawei,OA,OA Completado,2021-10-05 15:47:23,,2021-10-01 11:09:42,2021-10-01 11:09:42,2021-10-05 15:44:11,2021-10-05 15:47:23,2021-09-30
19926,CPU199,Solar De La Abadia,NB_IOT,JUAN PABLO,PIANELLO,J. PIANELLO,CDLA,AMBA,,ISM-10336,OA,2020-11-18 15:02:59,2020-11-18 15:02:59,2021-10-26 17:39:00,2021-10-28 21:11:59,2021-10-29 10:27:00,,-34.5673,-58.4372,CPU,MOP,Huawei,OA,OA Completado,2021-10-05 15:47:23,,2021-09-30 12:20:15,2021-09-30 12:20:15,2021-10-05 15:44:11,2021-10-05 15:47:23,2021-09-30
19927,CPU188,Calderon De La Barca,NB_IOT,Sin Asignar,Sin Asignar,Sin Asignar,CDLB,AMBA,,ISM-10337,OA,2020-11-18 12:53:00,2020-11-18 12:53:00,2021-01-21 12:47:00,2021-01-21 13:39:00,2021-01-25 14:08:59,,-34.63,-58.5017,CPU,MOP,Huawei,OA,OA Completado,2021-01-25 14:00:29,,2021-01-21 12:38:29,2021-01-21 12:38:42,2021-01-21 12:38:50,2021-01-25 14:00:29,2021-01-21
19928,CPU068,Dorrego,NB_IOT,JUAN PABLO,PIANELLO,J. PIANELLO,CDOR,AMBA,,ISM-10338,OA,2020-11-17 14:03:59,2020-11-17 14:03:59,2021-10-26 17:37:59,2021-10-28 19:14:59,2021-10-29 10:38:00,,-34.5696,-58.4314,CPU,MOP,Huawei,OA,OA Completado,2021-10-05 15:47:23,,2021-09-29 16:36:52,2021-09-29 16:36:52,2021-09-30 09:43:55,2021-10-05 15:47:23,2021-09-30
19929,CPU093,Darwin,NB_IOT,JUAN PABLO,PIANELLO,J. PIANELLO,CDRN,AMBA,,ISM-10339,OA,2020-11-18 09:02:59,2020-11-18 09:02:59,2021-10-26 17:39:00,2021-10-28 21:09:59,2021-10-29 10:27:00,,-34.594,-58.4465,CPU,MOP,Huawei,OA,OA Completado,2021-10-05 15:47:23,,2021-09-29 16:05:49,2021-09-29 16:05:49,2021-09-30 09:43:55,2021-10-05 15:47:23,2021-09-30
19930,CPU111,Plaza Devoto,NB_IOT,JUAN PABLO,PIANELLO,J. PIANELLO,CDTO,AMBA,,ISM-10340,OA,2020-11-18 09:38:59,2020-11-18 09:38:59,2021-10-26 17:39:00,2021-10-28 18:00:00,2021-10-29 10:39:59,,-34.6064,-58.5149,CPU,MOP,Huawei,OA,OA Completado,2021-10-05 15:47:23,,2021-09-30 10:46:46,2021-09-30 10:46:46,2021-10-05 15:44:11,2021-10-05 15:47:23,2021-09-30
19931,CPU368,Sanatorio Dupuytren,NB_IOT,JUAN PABLO,PIANELLO,J. PIANELLO,CDUPUY,AMBA,,ISM-10341,OA,2020-11-18 15:27:59,2020-11-18 15:27:59,2021-10-26 17:37:59,2021-10-28 19:23:59,2021-10-29 10:38:00,,-34.6157,-58.4136,CPU,MOP,Huawei,OA,OA Completado,2021-10-05 15:47:24,,2021-09-30 16:45:30,2021-09-30 16:45:30,2021-10-05 15:44:11,2021-10-05 15:47:24,2021-09-30
19933,CPU235,Estacion Caballito,NB_IOT,MATIAS EZEQUIEL,COSENTINO,M. COSENTINO,CECA,AMBA,,ISM-10343,OA,2020-11-18 13:54:59,2020-11-18 13:54:59,2021-02-17 23:51:59,2021-03-04 15:45:00,2021-03-05 18:47:00,,-34.6188,-58.4419,CPU,MOP,Huawei,OA,OA Completado,2021-03-08 09:43:26,,2021-02-10 14:34:16,2021-02-10 14:34:23,2021-02-12 13:34:06,2021-03-08 09:43:26,2021-02-12
19934,CPU376,Embajada De Dinamarca,NB_IOT,JUAN PABLO,PIANELLO,J. PIANELLO,CEDD,AMBA,,ISM-10344,OA,2020-11-18 15:31:59,2020-11-18 15:31:59,2021-10-26 17:39:00,2021-10-28 21:11:00,2021-10-29 10:27:00,,-34.5953,-58.3731,CPU,MOP,Huawei,OA,OA Completado,2021-10-05 15:47:24,,2021-09-30 18:06:21,2021-09-30 18:06:21,2021-10-05 15:44:11,2021-10-05 15:47:24,2021-09-30
19935,CPU215,Encarnacion Ezcurra,NB_IOT,MATIAS EZEQUIEL,COSENTINO,M. COSENTINO,CEEZ,AMBA,,ISM-10345,OA,2020-11-18 13:43:00,2020-11-18 13:43:00,2021-02-17 23:53:00,2021-03-04 16:05:59,2021-03-05 18:44:00,,-34.6163,-58.3625,CPU,MOP,Huawei,OA,OA Completado,2021-03-08 09:37:51,,2021-02-12 12:10:36,2021-02-12 12:10:40,2021-02-12 12:10:46,2021-03-08 09:37:51,2021-02-12
19936,CPU285,Edificio Guardacostas,NB_IOT,JUAN PABLO,PIANELLO,J. PIANELLO,CEGC,AMBA,,ISM-11805,OA,2020-11-26 12:20:00,2020-11-26 12:20:00,2021-10-26 17:37:59,2021-10-28 19:48:00,2021-10-29 10:36:00,,-34.6043,-58.3678,CPU,MOP,Huawei,OA,OA Completado,2021-10-05 15:47:24,,2021-09-30 15:07:27,2021-09-30 15:07:27,2021-10-05 15:44:11,2021-10-05 15:47:24,2021-09-30
19937,CPU311,Edificio Illia,NB_IOT,Sin Asignar,Sin Asignar,Sin Asignar,CEILTP,AMBA,,ISM-10346,OA,2020-11-18 14:59:00,2020-11-18 14:59:00,2021-01-27 12:54:00,2021-01-27 14:55:59,2021-01-28 11:51:59,,-34.5789,-58.3861,CPU,MOP,Huawei,OA,OA Completado,2021-01-27 13:28:40,,2021-01-26 16:10:36,2021-01-27 13:27:34,2021-01-27 13:27:54,2021-01-27 13:28:40,2021-01-27
19938,CPU212,Edificio Libertad 2,NB_IOT,JUAN PABLO,PIANELLO,J. PIANELLO,CELI,AMBA,,ISM-10347,OA,2020-11-18 13:41:59,2020-11-18 13:41:59,2021-10-26 17:37:59,2021-10-28 19:14:59,2021-10-29 10:38:00,,-34.588,-58.3674,CPU,MOP,Huawei,OA,OA Completado,2021-10-05 15:47:24,,2021-09-30 12:40:14,2021-09-30 12:40:14,2021-10-05 15:44:12,2021-10-05 15:47:24,2021-09-30
19939,CPU375,Estadio Malvinas Argentinas,NB_IOT,JUAN PABLO,PIANELLO,J. PIANELLO,CEMA,AMBA,,ISM-10348,OA,2020-11-18 15:31:00,2020-11-18 15:31:00,2021-10-26 17:39:00,2021-10-28 20:55:59,2021-10-29 10:29:00,,-34.5917,-58.4723,CPU,MOP,Huawei,OA,OA Completado,2021-10-05 15:47:24,,2021-09-30 18:06:21,2021-09-30 18:06:21,2021-10-05 15:44:12,2021-10-05 15:47:24,2021-09-30
19940,CPU520,Encina,NB_IOT,JUAN PABLO,PIANELLO,J. PIANELLO,CENCIN,AMBA,,ISM-10349,OA,2020-11-19 11:01:59,2020-11-19 11:01:59,2021-10-26 17:37:59,2021-10-28 19:14:00,2021-10-29 10:38:00,,,,,MOP,Huawei,OA,OA Completado,2021-10-05 15:47:24,,2021-10-01 10:23:41,2021-10-01 10:23:41,2021-10-05 15:44:12,2021-10-05 15:47:24,2021-09-30
19941,CPU805,Escuela Nacional de Nautica,NB_IOT,MATIAS EZEQUIEL,COSENTINO,M. COSENTINO,CENNAU,AMBA,,ISM-10350,OA,2020-11-19 14:57:59,2020-11-19 14:57:59,2021-02-17 23:53:00,2021-03-04 16:03:59,2021-03-05 18:45:00,,-34.5922,-58.3697,CPU,MOP,Huawei,OA,OA Completado,2021-03-08 09:43:26,,2021-02-18 14:54:27,2021-02-18 14:54:31,2021-02-18 14:54:37,2021-03-08 09:43:26,2021-02-18
19943,CPU211,Palermo,NB_IOT,JUAN PABLO,PIANELLO,J. PIANELLO,CERM,AMBA,,ISM-10352,OA,2020-11-18 13:41:59,2020-11-18 13:41:59,2021-10-26 17:39:00,2021-10-28 21:22:59,2021-10-29 10:25:00,,-34.5797,-58.4205,CPU,MOP,Huawei,OA,OA Completado,2021-10-05 15:47:24,,2021-09-30 12:20:15,2021-09-30 12:20:15,2021-10-05 15:44:12,2021-10-05 15:47:24,2021-09-30
19944,CPU233,Estacion Saavedra,NB_IOT,JUAN PABLO,PIANELLO,J. PIANELLO,CESA,AMBA,,ISM-10353,OA,2020-11-18 13:54:00,2020-11-18 13:54:00,2021-10-26 17:39:00,2021-10-28 20:44:00,2021-10-29 10:30:00,,-34.5538,-58.4882,CPU,MOP,Huawei,OA,OA Completado,2021-10-05 15:47:24,,2021-09-30 12:40:14,2021-09-30 12:40:14,2021-10-05 15:44:12,2021-10-05 15:47:24,2021-09-30
19945,CPU074,Estomba,NB_IOT,JUAN PABLO,PIANELLO,J. PIANELLO,CESB,AMBA,,ISM-10354,OA,2020-11-17 14:05:00,2020-11-17 14:05:00,2021-10-26 17:37:59,2021-10-28 19:57:00,2021-10-29 10:34:00,,-34.5776,-58.4654,CPU,MOP,Huawei,OA,OA Completado,2021-10-05 15:47:24,,2021-09-29 16:36:53,2021-09-29 16:36:53,2021-10-05 15:44:12,2021-10-05 15:47:24,2021-09-30
19946,CPU312,Estadio San Lorenzo,NB_IOT,JUAN PABLO,PIANELLO,J. PIANELLO,CESL,AMBA,,ISM-10355,OA,2020-11-18 14:59:00,2020-11-18 14:59:00,2021-10-26 17:37:59,2021-10-28 19:41:59,2021-10-29 10:36:00,,-34.6513,-58.4402,CPU,MOP,Huawei,OA,OA Completado,2021-10-05 15:47:24,,2021-09-30 15:07:27,2021-09-30 15:07:27,2021-10-05 15:44:12,2021-10-05 15:47:24,2021-10-30
19947,CPU380,Esmeralda,NB_IOT,MATIAS EZEQUIEL,COSENTINO,M. COSENTINO,CESM,AMBA,,ISM-10356,OA,2020-11-18 15:45:59,2020-11-18 15:45:59,2021-02-17 23:53:00,2021-03-04 16:12:00,2021-03-05 18:42:59,,-34.5957,-58.3788,CPU,MOP,Huawei,OA,OA Completado,2021-03-08 09:43:26,,2021-02-10 14:30:00,2021-02-10 14:30:13,2021-02-12 13:34:25,2021-03-08 09:43:26,2021-02-12
19948,CPU193,Estados Unidos,NB_IOT,JUAN PABLO,PIANELLO,J. PIANELLO,CEUA,AMBA,,ISM-10357,OA,2020-11-18 12:54:00,2020-11-18 12:54:00,2021-10-26 17:37:59,2021-10-28 20:44:00,2021-10-29 10:30:00,,-34.6189,-58.38,CPU,MOP,Huawei,OA,OA Completado,2021-10-05 15:47:25,,2021-09-30 12:20:15,2021-09-30 12:20:15,2021-10-05 15:44:12,2021-10-05 15:47:25,2021-09-30
19950,CPU252,Exedra 2,NB_IOT,JUAN PABLO,PIANELLO,J. PIANELLO,CEX2,AMBA,,ISM-10359,OA,2020-11-18 14:19:00,2020-11-18 14:19:00,2021-10-26 17:37:59,2021-10-28 20:06:59,2021-10-29 10:32:59,,-34.5986,-58.3803,CPU,MOP,Huawei,OA,OA Completado,2021-10-05 15:47:25,,2021-09-30 14:20:35,2021-09-30 14:20:35,2021-10-05 15:44:12,2021-10-05 15:47:25,2021-09-30
19951,CPU041,Favaloro,NB_IOT,JUAN PABLO,PIANELLO,J. PIANELLO,CFAV,AMBA,,ISM-10360,OA,2020-11-17 13:48:00,2020-11-17 13:48:00,2021-10-26 17:37:59,2021-10-28 20:01:00,2021-10-29 10:34:00,,-34.6134,-58.3901,CPU,MOP,Huawei,OA,OA Completado,2021-10-05 15:47:25,,2021-09-29 15:04:50,2021-09-29 15:04:50,2021-10-05 15:44:12,2021-10-05 15:47:25,2021-09-30
19952,CPU508,Fernandez de la Cruz,NB_IOT,MATIAS EZEQUIEL,COSENTINO,M. COSENTINO,CFCRUZ,AMBA,,ISM-10361,OA,2020-11-19 10:59:59,2020-11-19 10:59:59,2021-02-17 23:53:59,2021-03-04 16:18:59,2021-03-05 18:42:00,,,,,MOP,Huawei,OA,OA Completado,2021-03-08 09:43:26,,2021-02-18 16:54:08,2021-02-18 16:54:10,2021-02-18 16:54:14,2021-03-08 09:43:26,2021-02-18
19953,CPU378,Fierro Hotel Boutique,NB_IOT,MATIAS EZEQUIEL,COSENTINO,M. COSENTINO,CFHB,AMBA,,ISM-10362,OA,2020-11-18 15:45:00,2020-11-18 15:45:00,2021-02-17 23:53:00,2021-03-04 16:12:59,2021-03-05 18:42:59,,-34.5789,-58.4354,CPU,MOP,Huawei,OA,OA Completado,2021-03-08 09:43:26,,2021-02-10 10:56:09,2021-02-10 10:56:21,2021-02-12 12:35:28,2021-03-08 09:43:26,2021-02-12
19954,CPU013,Florida,NB_IOT,MATIAS EZEQUIEL,COSENTINO,M. COSENTINO,CFLO,AMBA,,ISM-10363,OA,2020-11-17 12:49:00,2020-11-17 12:49:00,2021-02-17 23:53:00,2021-03-04 16:07:59,2021-03-05 18:44:00,,-34.6078,-58.3746,CPU,MOP,Huawei,OA,OA Completado,2021-03-08 09:43:27,,2021-02-11 12:31:58,2021-02-11 12:32:19,2021-02-11 12:32:32,2021-03-08 09:43:27,2021-02-11
19955,CPU152,Flores,NB_IOT,JUAN PABLO,PIANELLO,J. PIANELLO,CFLR,AMBA,,ISM-10364,OA,2020-11-18 10:05:59,2020-11-18 10:05:59,2021-10-26 17:39:00,2021-10-28 21:00:00,2021-10-29 10:27:59,,-34.6351,-58.4625,CPU,MOP,Huawei,OA,OA Completado,2021-10-05 15:47:25,,2021-09-30 11:13:27,2021-09-30 11:13:27,2021-10-05 15:44:12,2021-10-05 15:47:25,2021-09-30
19956,CPU202,Four Seasons,NB_IOT,MATIAS EZEQUIEL,COSENTINO,M. COSENTINO,CFOS,AMBA,,ISM-10365,OA,2020-11-18 13:39:00,2020-11-18 13:39:00,2021-02-17 23:51:59,2021-03-04 15:27:59,2021-03-05 18:49:00,,-34.5906,-58.3826,CPU,MOP,Huawei,OA,OA Completado,2021-03-08 09:43:27,,2021-02-17 16:42:38,2021-02-17 16:42:42,2021-02-17 16:42:48,2021-03-08 09:43:27,2021-02-17
19958,CPU127,Gaona,NB_IOT,JUAN PABLO,PIANELLO,J. PIANELLO,CGAO,AMBA,,ISM-10367,RFI,2020-11-18 09:54:00,2020-11-18 09:54:00,,,,,-34.6163,-58.4649,CPU,MOP,Huawei,OA,OA Completado,2021-10-05 15:47:25,,2021-09-30 11:02:19,2021-09-30 11:02:19,2021-10-05 15:44:13,2021-10-05 15:47:25,2021-09-30
19959,CPU006,Galerias Pacifico,NB_IOT,MATIAS EZEQUIEL,COSENTINO,M. COSENTINO,CGAP,AMBA,,ISM-10368,OA,2020-11-17 12:42:00,2020-11-17 12:42:00,2021-02-17 23:53:59,2021-03-04 16:16:59,2021-03-05 18:42:00,,-34.5983,-58.3741,CPU,MOP,Huawei,OA,OA Completado,2021-03-08 09:43:27,,2021-02-17 17:05:58,2021-02-17 17:06:05,2021-02-17 17:06:14,2021-03-08 09:43:27,2021-02-17
19960,CPU330,Galerias Hotel,NB_IOT,JUAN PABLO,PIANELLO,J. PIANELLO,CGHT,AMBA,,ISM-10369,OA,2020-11-18 15:22:00,2020-11-18 15:22:00,2021-10-26 17:37:59,2021-10-28 19:54:59,2021-10-29 10:34:59,,-34.6009,-58.3761,CPU,MOP,Huawei,OA,OA Completado,2021-10-05 15:47:25,,2021-09-30 16:31:14,2021-09-30 16:31:14,2021-10-05 15:44:13,2021-10-05 15:47:25,2021-09-30
19961,CPU077,Golf,NB_IOT,Sin Asignar,Sin Asignar,Sin Asignar,CGLF,AMBA,,ISM-10370,OA,2020-11-17 14:06:00,2020-11-17 14:06:00,2021-01-27 16:50:59,2021-01-27 17:53:59,2021-01-28 12:42:59,,-34.5751,-58.4359,CPU,MOP,Huawei,OA,OA Completado,2021-01-28 12:34:16,,2021-01-27 16:42:32,2021-01-27 16:42:40,2021-01-28 12:33:54,2021-01-28 12:34:16,2021-01-28
19962,CPU085,Gabriela Mistral,NB_IOT,JUAN PABLO,PIANELLO,J. PIANELLO,CGMI,AMBA,,ISM-10371,OA,2020-11-17 14:08:59,2020-11-17 14:08:59,2021-10-26 17:39:00,2021-10-28 20:48:59,2021-10-29 10:30:00,,-34.5892,-58.5045,CPU,MOP,Huawei,OA,OA Completado,2021-10-05 15:47:25,,2021-09-29 16:24:47,2021-09-29 16:24:47,2021-10-05 15:44:13,2021-10-05 15:47:25,2021-09-30
19963,CPU374,Geba Newbery,NB_IOT,JUAN PABLO,PIANELLO,J. PIANELLO,CGNW,AMBA,,ISM-10372,OA,2020-11-18 15:29:59,2020-11-18 15:29:59,2021-10-26 17:37:59,2021-10-28 19:52:00,2021-10-29 10:34:59,,-34.5682,-58.4197,CPU,MOP,Huawei,OA,OA Completado,2021-10-05 15:47:25,,2021-09-30 18:06:21,2021-09-30 18:06:21,2021-10-05 15:44:13,2021-10-05 15:47:25,2021-09-30
19966,CPU373,Geba San Martin,NB_IOT,JUAN PABLO,PIANELLO,J. PIANELLO,CGSM,AMBA,,ISM-10375,OA,2020-11-18 15:29:59,2020-11-18 15:29:59,2021-10-26 17:37:59,2021-10-28 19:39:59,2021-10-29 10:36:00,,-34.5603,-58.4216,CPU,MOP,Huawei,OA,OA Completado,2021-10-05 15:47:25,,2021-09-30 18:06:21,2021-09-30 18:06:21,2021-10-05 15:44:13,2021-10-05 15:47:25,2021-09-30
19967,CPU445,Gurruchaga,NB_IOT,JUAN PABLO,PIANELLO,J. PIANELLO,CGUR,AMBA,,ISM-10376,OA,2020-11-19 10:20:00,2020-11-19 10:20:00,2021-10-26 17:39:00,2021-10-28 21:20:00,2021-10-29 10:25:59,,-34.5845,-58.4218,CPU,MOP,Huawei,OA,OA Completado,2021-10-05 15:47:26,,2021-09-30 17:07:46,2021-09-30 17:07:46,2021-10-05 15:44:13,2021-10-05 15:47:26,2021-09-30
19968,CPU133,Guayaquil,NB_IOT,Sin Asignar,Sin Asignar,Sin Asignar,CGUYTP,AMBA,,ISM-10377,OA,2020-11-18 09:56:59,2020-11-18 09:56:59,2021-01-22 12:36:00,2021-01-25 15:08:00,2021-01-25 15:13:00,,-34.6194,-58.4294,CPU,MOP,Huawei,OA,OA Completado,2021-01-25 15:24:19,,2021-01-20 17:03:31,2021-01-22 12:24:22,2021-01-22 12:24:31,2021-01-25 15:24:19,2021-01-22
19969,CPU120,Hospital Aleman,NB_IOT,Sin Asignar,Sin Asignar,Sin Asignar,CHAL,AMBA,,ISM-10378,OA,2020-11-18 09:51:59,2020-11-18 09:51:59,2021-01-21 14:06:00,2021-01-21 14:28:59,2021-01-25 11:28:00,,-34.5927,-58.4001,CPU,MOP,Huawei,OA,OA Completado,2021-01-25 11:18:43,,2021-01-21 14:10:08,2021-01-21 14:10:24,2021-01-21 14:10:33,2021-01-25 11:18:43,2021-01-21
19970,CPU254,Hospital Britanico Cpu254,NB_IOT,Sin Asignar,Sin Asignar,Sin Asignar,CHBR,AMBA,,ISM-10379,OA,2020-11-18 14:17:59,2020-11-18 14:17:59,2021-01-13 18:15:00,2021-01-14 09:02:00,2021-01-15 14:55:00,,-34.6335,-58.389,CPU,MOP,Huawei,OA,OA Completado,2021-01-15 15:10:07,,2021-01-13 17:28:29,2021-01-13 17:30:36,2021-01-13 17:31:55,2021-01-15 15:10:07,2021-01-13
19971,CPU078,Hotel Colombo,NB_IOT,Sin Asignar,Sin Asignar,Sin Asignar,CHCOTP,AMBA,,ISM-10380,OA,2020-11-17 14:06:59,2020-11-17 14:06:59,2021-01-22 09:31:00,2021-01-22 10:59:59,2021-01-25 12:29:59,,-34.5768,-58.4217,CPU,MOP,Huawei,OA,OA Completado,2021-01-25 12:20:54,,2021-01-20 17:03:39,2021-01-22 12:30:26,2021-01-22 12:30:53,2021-01-25 12:20:54,2021-01-22
19972,CPU136,Hospital Español,NB_IOT,JUAN PABLO,PIANELLO,J. PIANELLO,CHES,AMBA,,ISM-10381,OA,2020-11-18 09:58:00,2020-11-18 09:58:00,2021-10-26 17:37:59,2021-10-28 19:14:00,2021-10-29 10:38:00,,-34.6166,-58.4079,CPU,MOP,Huawei,OA,OA Completado,2021-10-05 15:47:26,,2021-09-30 10:07:14,2021-09-30 10:07:14,2021-10-05 15:44:13,2021-10-05 15:47:26,2021-09-30
19973,CPU441,Chiclana,NB_IOT,JUAN PABLO,PIANELLO,J. PIANELLO,CHICLA,AMBA,,ISM-10382,OA,2020-11-19 10:18:59,2020-11-19 10:18:59,2021-10-26 17:39:00,2021-10-28 20:48:00,2021-10-29 10:30:00,,,,,MOP,Huawei,OA,OA Completado,2021-10-05 15:47:26,,2021-09-30 17:07:46,2021-09-30 17:07:46,2021-10-05 15:44:13,2021-10-05 15:47:26,2021-09-30
19974,CPU040,Hilton,NB_IOT,Sin Asignar,Sin Asignar,Sin Asignar,CHIL,AMBA,,ISM-10383,OA,2020-11-17 13:47:00,2020-11-17 13:47:00,2021-02-05 13:57:00,2021-02-05 15:36:59,2021-02-14 19:54:00,,-34.6059,-58.3638,CPU,MOP,Huawei,OA,OA Completado,2021-02-05 13:48:40,,2021-02-05 13:48:08,2021-02-05 13:48:14,2021-02-05 13:48:19,2021-02-05 13:48:40,2021-02-05
19975,CPU287,Hipodromo De Palermo,NB_IOT,MATIAS EZEQUIEL,COSENTINO,M. COSENTINO,CHIP,AMBA,,ISM-10384,OA,2020-11-18 14:51:59,2020-11-18 14:51:59,2021-02-17 23:53:00,2021-03-03 14:51:59,2021-03-05 18:51:59,,-34.5692,-58.4251,CPU,MOP,Huawei,OA,OA Completado,2021-03-08 09:43:27,,2021-02-18 13:53:54,2021-02-18 13:53:59,2021-02-18 13:54:03,2021-03-08 09:43:27,2021-02-18
19976,CPU118,Hospital Italiano,NB_IOT,JUAN PABLO,PIANELLO,J. PIANELLO,CHIT,AMBA,,ISM-10385,OA,2020-11-18 09:51:00,2020-11-18 09:51:00,2021-10-26 17:39:00,2021-10-28 20:44:59,2021-10-29 10:30:00,,-34.6088,-58.426,CPU,MOP,Huawei,OA,OA Completado,2021-10-05 15:47:26,,2021-09-30 11:02:19,2021-09-30 11:02:19,2021-10-05 15:44:13,2021-10-05 15:47:26,2021-09-30
19977,CPU369,Hospital Penna,NB_IOT,JUAN PABLO,PIANELLO,J. PIANELLO,CHPE,AMBA,,ISM-10386,OA,2020-11-18 15:27:59,2020-11-18 15:27:59,2021-10-26 17:39:00,2021-10-28 20:46:59,2021-10-29 10:30:00,,-34.6408,-58.4111,CPU,MOP,Huawei,OA,OA Completado,2021-10-05 15:47:26,,2021-09-30 18:06:21,2021-09-30 18:06:21,2021-10-05 15:44:13,2021-10-05 15:47:26,2021-09-30
19978,CPU486,Honorio Pueyrredon,NB_IOT,MATIAS EZEQUIEL,COSENTINO,M. COSENTINO,CHPY,AMBA,,ISM-10387,OA,2020-11-19 10:54:59,2020-11-19 10:54:59,2021-02-17 23:53:59,2021-03-04 16:16:00,2021-03-05 18:42:00,,-34.6105,-58.4429,CPU,MOP,Huawei,OA,OA Completado,2021-03-08 09:43:27,,2021-02-11 11:58:42,2021-02-11 11:58:58,2021-02-11 11:59:04,2021-03-08 09:43:27,2021-02-11
19979,CPU060,Harrods,NB_IOT,JUAN PABLO,PIANELLO,J. PIANELLO,CHRR,AMBA,,ISM-10388,OA,2020-11-17 14:01:00,2020-11-17 14:01:00,2021-10-26 17:39:00,2021-10-28 20:51:00,2021-10-29 10:30:00,,-34.5621,-58.4402,CPU,MOP,Huawei,OA,OA Completado,2021-10-05 15:47:26,,2021-09-29 16:36:53,2021-09-29 16:36:53,2021-09-30 09:43:56,2021-10-05 15:47:26,2021-09-30
19980,CPU301,Hacoaj Sede Capital Cpu301,NB_IOT,MATIAS EZEQUIEL,COSENTINO,M. COSENTINO,CHSC,AMBA,,ISM-10389,OA,2020-11-18 14:55:00,2020-11-18 14:55:00,2021-02-17 23:51:59,2021-03-04 13:41:59,2021-03-05 18:49:59,,-34.598,-58.4242,CPU,MOP,Huawei,OA,OA Completado,2021-03-08 09:43:27,,2021-02-12 13:45:12,2021-02-12 13:45:24,2021-02-12 13:45:30,2021-03-08 09:43:27,2021-02-12
19981,CPU024,Hospital,NB_IOT,MATIAS EZEQUIEL,COSENTINO,M. COSENTINO,CHSP,AMBA,,ISM-10390,OA,2020-11-17 13:00:59,2020-11-17 13:00:59,2021-02-17 23:51:59,2021-03-04 15:45:59,2021-03-05 18:47:00,,-34.5997,-58.4015,CPU,MOP,Huawei,OA,OA Completado,2021-03-08 09:43:27,,2021-02-11 11:45:25,2021-02-11 11:45:41,2021-02-11 11:45:52,2021-03-08 09:43:27,2021-02-11
19982,CPU181,Humboldt,NB_IOT,JUAN PABLO,PIANELLO,J. PIANELLO,CHUM,AMBA,,ISM-10391,RFI,2020-11-18 12:51:59,2020-11-18 12:51:59,,,,,-34.5782,-58.4273,CPU,MOP,Huawei,OA,OA Completado,2021-10-05 15:47:26,,2021-09-30 11:21:40,2021-09-30 11:21:41,2021-10-05 15:44:13,2021-10-05 15:47:26,2021-09-30
19983,CPU168,Huracan,NB_IOT,Sin Asignar,Sin Asignar,Sin Asignar,CHUNTP,AMBA,,ISM-10392,OA,2020-11-18 10:12:00,2020-11-18 10:12:00,2021-01-22 12:11:59,2021-01-22 12:38:00,2021-01-25 12:31:00,,-34.6489,-58.399,CPU,MOP,Huawei,OA,OA Completado,2021-01-25 12:22:26,,2021-01-20 17:03:46,2021-01-22 12:31:11,2021-01-22 12:31:19,2021-01-25 12:22:26,2021-01-22
19984,CPU295,Hospital Velez Sarsfield 2,NB_IOT,MATIAS EZEQUIEL,COSENTINO,M. COSENTINO,CHV2,AMBA,,ISM-10393,OA,2020-11-18 14:53:59,2020-11-18 14:53:59,2021-02-17 23:53:00,2021-03-04 15:58:00,2021-03-05 18:45:00,,-34.625,-58.5073,CPU,MOP,Huawei,OA,OA Completado,2021-03-08 09:43:27,,2021-02-12 12:17:31,2021-02-12 12:17:37,2021-02-12 12:17:42,2021-03-08 09:43:27,2021-02-12
19985,CPU032,Iglesia La Piedad,NB_IOT,JUAN PABLO,PIANELLO,J. PIANELLO,CIGL,AMBA,,ISM-10394,OA,2020-11-17 13:43:59,2020-11-17 13:43:59,2021-10-26 17:37:59,2021-10-28 19:59:00,2021-10-29 10:34:00,,-34.6071,-58.3876,CPU,MOP,Huawei,OA,OA Completado,2021-10-05 15:47:26,,2021-09-29 14:42:43,2021-09-29 14:42:43,2021-09-30 09:43:56,2021-10-05 15:47:26,2021-09-30
19986,CPU201,Facultad De Ingenieria,NB_IOT,Sin Asignar,Sin Asignar,Sin Asignar,CING,AMBA,,ISM-10395,OA,2020-11-18 13:25:59,2020-11-18 13:25:59,2021-01-13 17:19:00,2021-01-14 08:51:00,2021-01-15 14:50:00,,-34.589,-58.3966,CPU,MOP,Huawei,OA,OA Completado,2021-01-17 02:41:40,,2021-01-13 17:12:08,2021-01-13 17:12:16,2021-01-13 17:12:41,2021-01-17 02:41:40,2021-01-13
19987,CPU004,Marriot,NB_IOT,Sin Asignar,Sin Asignar,Sin Asignar,CIOT,AMBA,,ISM-10396,OA,2020-11-17 12:40:59,2020-11-17 12:40:59,2021-10-26 17:37:59,2021-10-28 19:50:00,2021-10-29 10:34:59,,-34.596,-58.3749,CPU,MOP,Huawei,OA,OA Completado,2021-09-28 10:11:43,,2021-09-28 10:08:27,2021-09-28 10:08:55,2021-09-28 10:09:24,2021-09-28 10:11:43,2021-09-30
19988,CPU069,Hipico,NB_IOT,JUAN PABLO,PIANELLO,J. PIANELLO,CIPI,AMBA,,ISM-10397,OA,2020-11-17 14:03:59,2020-11-17 14:03:59,2021-10-26 17:37:59,2021-10-28 20:35:00,2021-10-29 10:30:59,,-34.5652,-58.4172,CPU,MOP,Huawei,OA,OA Completado,2021-10-05 15:47:26,,2021-09-29 16:36:53,2021-09-29 16:36:53,2021-09-30 09:43:56,2021-10-05 15:47:26,2021-09-30
19989,CPU105,Juan B. Justo,NB_IOT,Sin Asignar,Sin Asignar,Sin Asignar,CJBJ,AMBA,,ISM-10398,OA,2020-11-18 09:24:59,2020-11-18 09:24:59,2021-01-25 12:06:00,2021-01-25 14:57:00,2021-01-25 15:02:00,,-34.604,-58.4627,CPU,MOP,Huawei,OA,OA Completado,2021-01-25 14:52:39,,2021-01-25 11:57:58,2021-01-25 11:58:19,2021-01-25 11:58:30,2021-01-25 14:52:39,2021-01-25
19990,CPU113,Jonte,NB_IOT,Sin Asignar,Sin Asignar,Sin Asignar,CJNTTP,AMBA,,ISM-10399,OA,2020-11-18 09:40:00,2020-11-18 09:40:00,2021-01-22 12:13:59,2021-01-22 12:38:59,2021-01-25 12:33:00,,-34.6126,-58.4906,CPU,MOP,Huawei,OA,OA Completado,2021-01-25 12:23:44,,2021-01-20 17:03:53,2021-01-22 12:31:34,2021-01-22 12:31:44,2021-01-25 12:23:44,2021-01-22
19992,CPU022,Juncal 2,NB_IOT,JUAN PABLO,PIANELLO,J. PIANELLO,CJU2,AMBA,,ISM-10401,RFI,2020-11-17 12:58:59,2020-11-17 12:58:59,,,,,-34.5948,-58.391,CPU,MOP,Huawei,OA,OA Completado,2021-10-05 15:47:26,,2021-09-29 14:22:53,2021-09-29 14:22:53,2021-09-30 09:43:56,2021-10-05 15:47:26,2021-09-30
19993,CPU021,Junin,NB_IOT,MATIAS EZEQUIEL,COSENTINO,M. COSENTINO,CJUI,AMBA,,ISM-10402,OA,2020-11-18 14:08:00,2020-11-18 14:08:00,2021-02-17 23:51:59,2021-03-04 15:24:59,2021-03-05 18:49:00,,-34.5939,-58.3973,CPU,MOP,Huawei,OA,OA Completado,2021-03-08 09:43:27,,2021-02-11 14:49:01,2021-02-11 14:49:05,2021-02-11 14:49:10,2021-03-08 09:43:27,2021-02-11
19994,CPU058,Juramento,NB_IOT,JUAN PABLO,PIANELLO,J. PIANELLO,CJUR,AMBA,,ISM-10403,OA,2020-11-26 12:15:59,2020-11-26 12:15:59,2021-10-26 17:39:00,2021-10-28 21:22:59,2021-10-29 10:25:00,,-34.5597,-58.4522,CPU,MOP,Huawei,OA,OA Completado,2021-10-05 15:47:27,,2021-09-29 16:36:53,2021-09-29 16:36:53,2021-09-30 09:43:56,2021-10-05 15:47:27,2021-09-30
19995,CPU143,Jujuy,NB_IOT,JUAN PABLO,PIANELLO,J. PIANELLO,CJUY,AMBA,,ISM-10404,RFI,2020-11-18 10:03:00,2020-11-18 10:03:00,,,,,-34.6249,-58.4015,CPU,MOP,Huawei,OA,OA Completado,2021-10-05 15:47:27,,2021-09-30 10:17:17,2021-09-30 10:17:17,2021-10-05 15:44:14,2021-10-05 15:47:27,2021-09-30
19996,CPU019,Las Heras,NB_IOT,JUAN PABLO,PIANELLO,J. PIANELLO,CLAH,AMBA,,ISM-10405,OA,2020-11-18 14:06:59,2020-11-18 14:06:59,2021-10-26 17:39:00,2021-10-28 20:48:00,2021-10-29 10:30:00,,-34.5906,-58.3938,CPU,MOP,Huawei,OA,OA Completado,2021-10-05 15:47:27,,2021-09-29 14:22:53,2021-09-29 14:22:53,2021-09-30 09:43:56,2021-10-05 15:47:27,2021-09-30
19997,CPU108,Lambare,NB_IOT,Sin Asignar,Sin Asignar,Sin Asignar,CLAM,AMBA,,ISM-10406,OA,2020-11-18 09:27:59,2020-11-18 09:27:59,2021-07-15 11:23:00,2021-07-15 16:52:59,2021-07-15 17:19:59,,-34.6004,-58.43,CPU,MOP,Huawei,OA,OA Completado,2021-07-15 17:09:51,,2021-07-15 11:10:25,2021-07-15 11:10:40,2021-07-15 17:09:19,2021-07-15 17:09:51,2021-07-15
19998,CPU018,Laprida,NB_IOT,MATIAS EZEQUIEL,COSENTINO,M. COSENTINO,CLAP,AMBA,,ISM-10407,OA,2020-11-17 12:54:59,2020-11-17 12:54:59,2021-02-17 23:51:59,2021-03-04 15:45:59,2021-03-05 18:47:00,,-34.5878,-58.4004,CPU,MOP,Huawei,OA,OA Completado,2021-03-08 09:43:28,,2021-02-11 13:58:39,2021-02-11 13:58:53,2021-02-11 13:58:59,2021-03-08 09:43:28,2021-02-11
19999,CPU030,Larrea,NB_IOT,JUAN PABLO,PIANELLO,J. PIANELLO,CLAR,AMBA,,ISM-10408,OA,2020-11-17 13:32:00,2020-11-17 13:32:00,2021-10-26 17:39:00,2021-10-28 21:09:00,2021-10-29 10:27:00,,-34.6083,-58.4027,CPU,MOP,Huawei,OA,OA Completado,2021-10-05 15:47:27,,2021-09-29 14:42:43,2021-09-29 14:42:43,2021-09-30 09:43:56,2021-10-05 15:47:27,2021-09-30
20000,CPU302,Lavalle,NB_IOT,Sin Asignar,Sin Asignar,Sin Asignar,CLAV,AMBA,,ISM-10409,OA,2020-11-18 14:55:59,2020-11-18 14:55:59,2021-01-11 16:38:00,2021-01-12 09:42:59,2021-01-12 16:30:00,,-34.6022,-58.3731,CPU,MOP,Huawei,OA,OA Completado,2021-01-12 18:15:26,,2021-01-05 19:34:01,2021-01-11 16:29:06,2021-01-11 16:29:12,2021-01-12 18:15:26,2021-01-11
20001,CPU314,Parque Lezama 2,NB_IOT,JUAN PABLO,PIANELLO,J. PIANELLO,CLE2,AMBA,,ISM-10410,OA,2020-11-18 15:00:00,2020-11-18 15:00:00,2021-10-26 17:37:59,2021-10-28 19:23:00,2021-10-29 10:38:00,,-34.6255,-58.3667,CPU,MOP,Huawei,OA,OA Completado,2021-10-05 15:47:27,,2021-09-30 15:07:28,2021-09-30 15:07:28,2021-10-05 15:44:14,2021-10-05 15:47:27,2021-10-30
20002,CPU147,Liniers,NB_IOT,Sin Asignar,Sin Asignar,Sin Asignar,CLIN,AMBA,,ISM-10411,OA,2020-11-18 15:04:00,2020-11-18 15:04:00,2021-01-21 13:00:00,2021-01-22 12:27:00,2021-01-25 13:30:59,,-34.6405,-58.5203,CPU,MOP,Huawei,OA,OA Completado,2021-01-25 13:22:11,,2021-01-21 12:48:47,2021-01-21 12:49:03,2021-01-22 11:52:56,2021-01-25 13:22:11,2021-01-22
20003,CPU195,Miller,NB_IOT,Sin Asignar,Sin Asignar,Sin Asignar,CLLE,AMBA,,ISM-10412,OA,2020-11-26 12:15:59,2020-11-26 12:15:59,2021-01-21 18:08:00,2021-01-22 10:52:59,2021-02-01 19:03:59,,-34.5727,-58.479,CPU,MOP,Huawei,OA,OA Completado,2021-02-01 18:58:14,,2021-01-21 18:08:17,2021-01-21 18:08:37,2021-01-21 18:08:45,2021-02-01 18:58:14,2021-01-21
20004,CPU410,La Rioja,NB_IOT,JUAN PABLO,PIANELLO,J. PIANELLO,CLRJ,AMBA,,ISM-10413,OA,2020-11-18 15:51:00,2020-11-18 15:51:00,2021-10-26 17:37:59,2021-10-28 19:23:00,2021-10-29 10:38:00,,-34.623,-58.4075,CPU,MOP,Huawei,OA,OA Completado,2021-10-05 15:47:27,,2021-09-30 16:50:24,2021-09-30 16:50:24,2021-10-05 15:44:14,2021-10-05 15:47:27,2021-09-30
20005,CPU823,Lugones,NB_IOT,JUAN PABLO,PIANELLO,J. PIANELLO,CLUGON,AMBA,,ISM-10414,OA,2020-11-19 15:00:59,2020-11-19 15:00:59,2021-10-26 17:37:59,2021-10-28 19:57:00,2021-10-29 10:34:00,,,,,MOP,Huawei,OA,OA Completado,2021-10-05 15:47:27,,2021-10-01 17:04:14,2021-10-01 17:04:14,2021-10-05 15:44:14,2021-10-05 15:47:27,2021-09-30
20006,CPU178,Lugano,NB_IOT,JUAN PABLO,PIANELLO,J. PIANELLO,CLUG,AMBA,,ISM-10415,OA,2020-11-18 10:14:59,2020-11-18 10:14:59,2021-10-26 17:39:00,2021-10-28 20:46:00,2021-10-29 10:30:00,,-34.6782,-58.4776,CPU,MOP,Huawei,OA,OA Completado,2021-10-05 15:47:28,,2021-09-30 11:21:41,2021-09-30 11:21:41,2021-10-05 15:44:14,2021-10-05 15:47:28,2021-09-30
20007,CPU255,Lavalleja,NB_IOT,Sin Asignar,Sin Asignar,Sin Asignar,CLVJ,AMBA,,ISM-10416,OA,2020-11-18 14:17:59,2020-11-18 14:17:59,2021-01-27 16:25:00,2021-01-27 17:32:00,2021-01-28 11:46:59,,-34.5961,-58.4275,CPU,MOP,Huawei,OA,OA Completado,2021-01-27 16:49:51,,2021-01-27 16:49:07,2021-01-27 16:49:14,2021-01-27 16:49:22,2021-01-27 16:49:51,2021-01-27
20008,CPU247,Mapfre,NB_IOT,Sin Asignar,Sin Asignar,Sin Asignar,CMAF,AMBA,,ISM-10417,OA,2020-11-18 13:59:59,2020-11-18 13:59:59,2021-02-10 15:45:00,2021-02-10 16:41:00,2021-02-10 16:57:00,,-34.6001,-58.3644,CPU,MOP,Huawei,OA,OA Completado,2021-02-10 15:37:01,,2021-02-05 10:39:14,2021-02-05 10:39:21,2021-02-10 15:36:37,2021-02-10 15:37:01,2021-02-10
20009,CPU665,Museo De Arte Moderno,NB_IOT,JUAN PABLO,PIANELLO,J. PIANELLO,CMAM,AMBA,,ISM-10418,OA,2020-11-19 12:13:00,2020-11-19 12:13:00,2021-10-26 17:37:59,2021-10-28 20:19:00,2021-10-29 10:32:00,,-34.622,-58.3707,CPU,MOP,Huawei,OA,OA Completado,2021-10-05 15:47:28,,2021-10-01 11:09:42,2021-10-01 11:09:42,2021-10-05 15:44:14,2021-10-05 15:47:28,2021-09-30
20010,CPU142,Maza,NB_IOT,SEBASTIAN,ANGELERI,S. ANGELERI,CMAZ,AMBA,,ISM-10419,OA,2020-11-18 10:02:00,2020-11-18 10:02:00,2021-10-26 17:37:59,2021-10-28 19:36:59,2021-10-29 10:36:00,,-34.6256,-58.4144,CPU,MOP,Huawei,OA,OA Completado,2021-10-06 11:38:15,,2021-09-30 10:17:17,2021-09-30 10:17:18,2021-10-05 15:44:14,2021-10-06 11:38:15,2021-09-30
20011,CPU100,Mario Bravo,NB_IOT,MATIAS EZEQUIEL,COSENTINO,M. COSENTINO,CMBO,AMBA,,ISM-10420,OA,2020-11-18 09:04:59,2020-11-18 09:04:59,2021-02-17 23:53:00,2021-03-04 16:14:00,2021-03-05 18:42:59,,-34.5977,-58.4156,CPU,MOP,Huawei,OA,OA Completado,2021-03-08 09:37:51,,2021-02-09 12:42:53,2021-02-09 12:43:00,2021-02-09 12:45:23,2021-03-08 09:37:51,2021-02-09
20012,CPU542,Monte Castro Sur,NB_IOT,JUAN PABLO,PIANELLO,J. PIANELLO,CMCS,AMBA,,ISM-10421,OA,2020-11-19 11:06:59,2020-11-19 11:06:59,2021-10-26 17:37:59,2021-10-28 19:29:00,2021-10-29 10:36:59,,-34.622,-58.5018,CPU,MOP,Huawei,OA,OA Completado,2021-10-05 15:47:28,,2021-10-01 10:23:41,2021-10-01 10:23:41,2021-10-05 15:44:14,2021-10-05 15:47:28,2021-09-30
20013,CPU273,Ministerio De Economia,NB_IOT,MATIAS EZEQUIEL,COSENTINO,M. COSENTINO,CMDE,AMBA,,ISM-10422,OA,2020-11-18 14:46:00,2020-11-18 14:46:00,2021-02-17 23:53:00,2021-03-04 15:51:00,2021-03-05 18:45:59,,-34.6095,-58.3701,CPU,MOP,Huawei,OA,OA Completado,2021-03-08 09:43:28,,2021-02-11 14:42:14,2021-02-11 14:42:19,2021-02-11 14:42:25,2021-03-08 09:43:28,2021-02-11
20014,CPU221,Mercado De Liniers,NB_IOT,JUAN PABLO,PIANELLO,J. PIANELLO,CMDL,AMBA,,ISM-10423,OA,2020-11-26 12:18:59,2020-11-26 12:18:59,2021-10-26 17:39:00,2021-10-28 21:22:00,2021-10-29 10:25:00,,-34.6641,-58.5008,CPU,MOP,Huawei,OA,OA Completado,2021-10-05 15:47:28,,2021-09-30 12:40:14,2021-09-30 12:40:14,2021-10-05 15:44:14,2021-10-05 15:47:28,2021-09-30
20015,CPU606,Mendoza,NB_IOT,MATIAS EZEQUIEL,COSENTINO,M. COSENTINO,CMDZ,AMBA,,ISM-10424,OA,2020-11-19 12:04:00,2020-11-19 12:04:00,2021-02-17 23:51:59,2021-03-04 15:20:00,2021-03-05 18:49:59,,-34.5625,-58.4602,CPU,MOP,Huawei,OA,OA Completado,2021-03-08 09:43:28,,2021-02-11 14:54:34,2021-02-11 14:54:38,2021-02-11 14:54:44,2021-03-08 09:43:28,2021-02-11
20016,CPU109,Medrano,NB_IOT,JUAN PABLO,PIANELLO,J. PIANELLO,CMED,AMBA,,ISM-10425,OA,2020-11-18 09:36:59,2020-11-18 09:36:59,2021-10-26 17:37:59,2021-10-28 19:34:00,2021-10-29 10:36:00,,-34.6044,-58.4213,CPU,MOP,Huawei,OA,OA Completado,2021-10-05 15:47:28,,2021-09-30 10:46:47,2021-09-30 10:46:47,2021-10-05 15:44:14,2021-10-05 15:47:28,2021-09-30
20017,CPU119,Mitre,NB_IOT,MATIAS EZEQUIEL,COSENTINO,M. COSENTINO,CMIT,AMBA,,ISM-10427,OA,2020-11-18 09:51:59,2020-11-18 09:51:59,2021-02-17 23:53:00,2021-03-04 16:05:59,2021-03-05 18:44:00,,-34.6094,-58.4133,CPU,MOP,Huawei,OA,OA Completado,2021-03-08 09:43:28,,2021-02-18 14:08:55,2021-02-18 14:08:59,2021-02-18 14:09:04,2021-03-08 09:43:28,2021-02-18
20018,CPU662,Ministerio De Justicia Y Seguridad Gcba,NB_IOT,JUAN PABLO,PIANELLO,J. PIANELLO,CMJS,AMBA,,ISM-10428,OA,2020-11-19 12:11:59,2020-11-19 12:11:59,2021-10-26 17:39:00,2021-10-28 21:15:00,2021-10-29 10:25:59,,-34.6403,-58.3688,CPU,MOP,Huawei,OA,OA Completado,2021-10-05 15:47:28,,2021-10-01 11:09:42,2021-10-01 11:09:42,2021-10-05 15:44:15,2021-10-05 15:47:28,2021-09-30
20019,CPU558,Melincue,NB_IOT,JUAN PABLO,PIANELLO,J. PIANELLO,CMLC,AMBA,,ISM-10429,OA,2020-11-19 11:08:59,2020-11-19 11:08:59,2021-10-26 17:39:00,2021-10-28 20:50:00,2021-10-29 10:30:00,,-34.6077,-58.5026,CPU,MOP,Huawei,OA,OA Completado,2021-10-05 15:47:28,,2021-10-01 10:23:41,2021-10-01 10:23:41,2021-10-05 15:44:15,2021-10-05 15:47:28,2021-09-30
20021,CPU196,AUSA Medalla Milagrosa,NB_IOT,JUAN PABLO,PIANELLO,J. PIANELLO,CMMI,AMBA,,ISM-10431,OA,2020-11-18 12:54:59,2020-11-18 12:54:59,2021-10-26 17:37:59,2021-10-28 19:27:00,2021-10-29 10:36:59,,-34.637,-58.4458,CPU,MOP,Huawei,OA,OA Completado,2021-10-05 15:47:28,,2021-09-30 12:20:15,2021-09-30 12:20:16,2021-10-05 15:44:15,2021-10-05 15:47:28,2021-09-30
20022,CPU049,Montañeses,NB_IOT,JUAN PABLO,PIANELLO,J. PIANELLO,CMNS,AMBA,,ISM-10432,OA,2020-11-17 13:56:00,2020-11-17 13:56:00,2021-10-26 17:37:59,2021-10-28 20:30:00,2021-10-29 10:32:00,,-34.5533,-58.4521,CPU,MOP,Huawei,OA,OA Completado,2021-10-05 15:47:28,,2021-09-29 15:54:01,2021-09-29 15:54:01,2021-09-30 09:43:56,2021-10-05 15:47:28,2021-09-30
20023,CPU457,Montesquieu,NB_IOT,JUAN PABLO,PIANELLO,J. PIANELLO,CMNTSQ,AMBA,,ISM-10433,OA,2020-11-19 10:21:00,2020-11-19 10:21:00,2021-10-26 17:39:00,2021-10-28 20:53:00,2021-10-29 10:29:00,,,,,MOP,Huawei,OA,OA Completado,2021-10-05 15:47:29,,2021-09-30 17:07:46,2021-09-30 17:07:46,2021-10-05 15:44:15,2021-10-05 15:47:29,2021-09-30
20024,CPU037,Monserrat,NB_IOT,Sin Asignar,Sin Asignar,Sin Asignar,CMON,AMBA,,ISM-10434,OA,2021-02-01 16:18:00,2021-02-01 16:18:00,2021-02-01 16:41:59,2021-02-01 17:44:59,2021-02-01 18:31:59,,-34.6163,-58.3969,CPU,MOP,Huawei,OA,OA Completado,2021-02-01 16:35:25,,2021-01-21 15:14:33,2021-01-21 15:14:46,2021-02-01 16:34:51,2021-02-01 16:35:25,2021-02-01
20025,CPU036,Mop,NB_IOT,JUAN PABLO,PIANELLO,J. PIANELLO,CMOP,AMBA,,ISM-10435,OA,2020-11-17 13:45:00,2020-11-17 13:45:00,2021-10-26 17:39:00,2021-10-28 20:44:59,2021-10-29 10:30:00,,-34.612,-58.3842,CPU,MOP,Huawei,OA,OA Completado,2021-10-05 15:47:29,,2021-09-29 14:42:43,2021-09-29 14:42:43,2021-09-30 09:43:56,2021-10-05 15:47:29,2021-09-30
20026,CPU265,Mercedes,NB_IOT,MATIAS EZEQUIEL,COSENTINO,M. COSENTINO,CMRC,AMBA,,ISM-10436,OA,2020-11-18 14:28:59,2020-11-18 14:28:59,2021-02-17 23:51:59,2021-03-04 15:45:00,2021-03-05 18:47:00,,-34.6257,-58.4869,CPU,MOP,Huawei,OA,OA Completado,2021-03-08 09:43:28,,2021-02-11 12:53:44,2021-02-11 12:54:00,2021-02-11 12:54:10,2021-03-08 09:43:28,2021-02-11
20027,CPU062,Monroe,NB_IOT,MATIAS EZEQUIEL,COSENTINO,M. COSENTINO,CMRE,AMBA,,ISM-10437,OA,2020-11-17 14:01:59,2020-11-17 14:01:59,2021-02-17 23:53:00,2021-03-04 16:11:00,2021-03-05 18:42:59,,-34.5677,-58.4758,CPU,MOP,Huawei,OA,OA Completado,2021-03-08 09:43:28,,2021-02-11 13:52:19,2021-02-11 13:52:41,2021-02-11 13:52:47,2021-03-08 09:43:28,2021-02-11
20028,CPU084,Marangoni,NB_IOT,JUAN PABLO,PIANELLO,J. PIANELLO,CMRG,AMBA,,ISM-10438,OA,2020-11-17 14:08:59,2020-11-17 14:08:59,2021-10-26 17:37:59,2021-10-28 20:23:00,2021-10-29 10:32:00,,-34.5831,-58.4057,CPU,MOP,Huawei,OA,OA Completado,2021-10-05 15:47:29,,2021-09-29 16:36:53,2021-09-29 16:36:53,2021-10-05 15:44:15,2021-10-05 15:47:29,2021-09-30
20029,CPU262,Mataderos 2,NB_IOT,JUAN PABLO,PIANELLO,J. PIANELLO,CMT2,AMBA,,ISM-10439,OA,2020-11-18 14:28:00,2020-11-18 14:28:00,2021-10-26 17:37:59,2021-10-28 19:43:00,2021-10-29 10:36:00,,-34.6562,-58.4999,CPU,MOP,Huawei,OA,OA Completado,2021-10-05 15:47:29,,2021-09-30 14:20:35,2021-09-30 14:20:36,2021-10-05 15:44:15,2021-10-05 15:47:29,2021-09-30
20030,CPU172,Mataderos,NB_IOT,Sin Asignar,Sin Asignar,Sin Asignar,CMTA,AMBA,,ISM-10440,OA,2020-11-18 10:14:00,2020-11-18 10:14:00,2021-01-21 12:40:59,2021-01-21 13:34:59,2021-01-25 14:14:00,,-34.6615,-58.4895,CPU,MOP,Huawei,OA,OA Completado,2021-01-25 14:04:56,,2021-01-21 12:34:05,2021-01-21 12:34:22,2021-01-21 12:34:33,2021-01-25 14:04:56,2021-01-21
20031,CPU377,Montagne,NB_IOT,JUAN PABLO,PIANELLO,J. PIANELLO,CMTG,AMBA,,ISM-10441,OA,2020-11-18 15:31:59,2020-11-18 15:31:59,2021-10-26 17:37:59,2021-10-28 18:56:59,2021-10-29 10:39:59,,-34.5891,-58.4376,CPU,MOP,Huawei,OA,OA Completado,2021-10-05 15:47:29,,2021-09-30 18:06:21,2021-09-30 18:06:22,2021-10-05 15:44:15,2021-10-05 15:47:29,2021-09-30
20032,CPU029,Montevideo,NB_IOT,Sin Asignar,Sin Asignar,Sin Asignar,CMTVTP,AMBA,,ISM-10442,OA,2020-11-17 13:30:59,2020-11-17 13:30:59,2021-02-10 17:03:59,2021-02-10 23:30:59,2021-02-17 07:59:59,,-34.604,-58.3895,CPU,MOP,Huawei,OA,OA Completado,2021-02-10 17:16:08,,2021-01-20 17:04:00,2021-02-08 18:11:24,2021-02-10 16:55:00,2021-02-10 17:16:08,2021-02-10
20033,CPU693,Nextel Alsina,NB_IOT,JUAN PABLO,PIANELLO,J. PIANELLO,CNAL,AMBA,,ISM-10443,OA,2020-11-19 12:24:00,2020-11-19 12:24:00,2021-10-26 17:37:59,2021-10-28 19:38:00,2021-10-29 10:36:00,,-34.6133,-58.4085,CPU,MOP,Huawei,OA,OA Completado,2021-10-05 15:47:29,,2021-10-01 11:43:46,2021-10-01 11:43:46,2021-10-05 15:44:15,2021-10-05 15:47:29,2021-09-30
20034,CPU760,Nextel Alvear,NB_IOT,JUAN PABLO,PIANELLO,J. PIANELLO,CNALVR,AMBA,,ISM-10444,OA,2020-11-19 14:21:00,2020-11-19 14:21:00,2021-10-26 17:37:59,2021-10-28 19:54:00,2021-10-29 10:34:59,,,,,MOP,Huawei,OA,OA Completado,2021-10-05 15:47:29,,2021-10-01 14:28:14,2021-10-01 14:28:14,2021-10-05 15:44:15,2021-10-05 15:47:29,2021-09-30
20035,CPU258,Naon,NB_IOT,MATIAS EZEQUIEL,COSENTINO,M. COSENTINO,CNAO,AMBA,,ISM-10445,OA,2020-11-18 14:24:59,2020-11-18 14:24:59,2021-02-17 23:53:59,2021-03-04 16:14:59,2021-03-05 18:42:59,,-34.5723,-58.4682,CPU,MOP,Huawei,OA,OA Completado,2021-03-08 09:43:28,,2021-02-17 15:16:36,2021-02-17 15:16:54,2021-02-17 17:36:48,2021-03-08 09:43:28,2021-02-17
20036,CPU641,Nextel ARioz,NB_IOT,JUAN PABLO,PIANELLO,J. PIANELLO,CNAROZ,AMBA,,ISM-10446,OA,2020-11-19 12:09:00,2020-11-19 12:09:00,2021-10-26 17:37:59,2021-10-28 20:37:00,2021-10-29 10:30:59,,-34.5887,-58.4196,CPU,MOP,Huawei,OA,OA Completado,2021-10-05 15:47:29,,2021-10-01 11:09:42,2021-10-01 11:09:42,2021-10-05 15:44:15,2021-10-05 15:47:29,2021-09-30
20037,CPU602,Nextel Arcos,NB_IOT,Sin Asignar,Sin Asignar,Sin Asignar,CNAR,AMBA,,ISM-10447,OA,2020-11-19 12:04:00,2020-11-19 12:04:00,2021-01-27 16:54:59,2021-01-27 17:55:59,2021-01-28 12:45:00,,-34.5552,-58.459,CPU,MOP,Huawei,OA,OA Completado,2021-01-28 12:35:38,,2021-01-27 16:46:22,2021-01-27 16:46:28,2021-01-28 12:35:14,2021-01-28 12:35:38,2021-01-28
