intervencionId,codigoSitio,NombreSitio,NombreProyecto,Nombre,Apellido,nombreCorto,EMG,Region,ICD,CasoSigo,estadoSigo,fechaRFPSIGO,fechaRFISIGO,fechaRFASIGO,fechaRFTSIGO,fechaOASIGO,contratista,Latitud,Longitud,ALM,ManoObra,Vendor,EstadoIM,subEstado,FechaEstadoIM,fechaRFPSIM,fechaRFISIM,fechaRFASIM,fechaRFTSIM,fechaOASIM,FechaIntegracionProgramada
128,A02-S056,Villa Nueva,ActivacionLTE1900,Sin Asignar,Sin Asignar,Sin Asignar,XVNUEV,MEDI,,ISM-5136,OA,2020-05-06 15:31:00,2020-05-06 15:31:00,2021-09-23 11:14:00,2021-09-24 22:05:00,2021-10-26 17:06:59,,-32.4339,-63.2495,A02,MOP,Huawei,OA,Finalizado,2021-09-30 00:00:00,,2021-09-22 15:13:25,2021-09-22 15:13:59,2021-09-24 10:00:27,2021-09-30 00:00:00,2021-09-30
904,A03-S062,Cordoba Ciadea,ActivacionLTE1900,Sin Asignar,Sin Asignar,Sin Asignar,XCCIAD,MEDI,,ISM-5864,OA,2019-11-08 15:11:59,2019-11-08 15:11:59,2021-04-12 16:25:00,2021-04-19 18:38:59,2021-04-19 19:27:59,,-31.4708,-64.2586,A03,MOP,Huawei,OA,OA Completado,2021-04-19 19:21:49,,2021-04-19 19:20:11,2021-04-19 19:20:51,2021-04-19 19:21:19,2021-04-19 19:21:49,2021-09-03
1626,A11-S209,Santiago Maco,ActivacionLTE1900,MATIAS EZEQUIEL,COSENTINO,M. COSENTINO,GCMACO,MEDI,,ISM-15069,OA,2021-11-03 10:27:00,2021-11-03 10:27:00,2021-11-03 15:40:00,2021-11-03 19:18:59,2021-11-04 10:11:00,,-27.8527,-64.23,A11,MOP,Huawei,OA,OA Completado,2021-11-04 10:45:44,,2021-09-14 10:42:02,2021-09-14 10:44:36,2021-09-14 10:47:13,2021-11-04 10:45:44,2021-09-30
1638,A11-S435,Santiago Juramento,ActivacionLTE1900,MATIAS EZEQUIEL,COSENTINO,M. COSENTINO,GCJRTO,MEDI,,ISM-6233,OA,2019-10-21 13:41:00,2019-10-21 13:41:00,2019-10-21 17:26:00,2021-11-03 19:18:59,2021-11-04 10:14:00,,-27.8173,-64.2476,A11,MOP,Huawei,OA,OA Completado,2021-11-04 10:45:44,,2021-09-14 10:42:08,2021-09-14 10:44:44,2021-09-14 10:47:20,2021-11-04 10:45:44,2021-09-30
19407,A03-S083,Los Cocos,ActivacionLTE1900,Sin Asignar,Sin Asignar,Sin Asignar,XLCOCO,MEDI,,ISM-6734,OA,2021-07-20 10:14:00,2021-07-20 10:14:00,2021-07-20 10:57:00,2021-07-20 11:15:00,2021-07-20 17:59:00,,-30.937,-64.4931,A03,MOP,Huawei,OA,OA Completado,2021-07-20 17:48:17,,2021-07-19 19:27:06,2021-07-20 17:47:16,2021-07-20 17:47:44,2021-07-20 17:48:17,2021-09-30
21762,A41-B178,Playa Chapadmalal,ActivacionLTE1900,Sin Asignar,Sin Asignar,Sin Asignar,BPCHAP,SUR,,ISM-12358,OA,2021-02-01 17:55:59,2021-02-02 09:56:59,2021-02-02 10:09:59,2021-02-03 11:17:59,2021-02-03 16:21:59,,-38.1584,-57.6318,A41,MOP,Huawei,OA,OA Completado,2021-02-05 17:51:42,,2021-02-01 16:46:42,2021-02-01 16:49:03,2021-02-05 17:51:09,2021-02-05 17:51:42,2021-02-28
21848,A41-B983,Sierra de Los Padres Canal 8,ActivacionLTE1900,Sin Asignar,Sin Asignar,Sin Asignar,BMPSPC,SUR,,ISM-12144,OA,2021-01-11 17:21:00,2021-01-11 17:21:00,2021-01-11 20:17:00,2021-01-15 10:41:00,2021-01-15 14:42:00,,,,,MOP,Huawei,OA,OA Completado,2021-01-15 10:18:20,,2021-01-11 15:58:35,2021-01-11 16:18:37,2021-01-15 10:17:26,2021-01-15 10:18:20,2021-01-30
21850,A17-S192,Colonia Popular,ActivacionLTE1900,Sin Asignar,Sin Asignar,Sin Asignar,HCPPLR,LITO,,ISM-12119,OA,2021-01-08 09:13:00,2021-01-08 09:13:00,2021-01-08 17:39:00,2021-01-11 10:45:59,2021-01-14 13:11:00,,-27.2762,-59.1484,A17,MOP,NOKIA,OA,OA Completado,2021-01-14 13:04:58,,2021-01-14 13:01:35,2021-01-14 13:03:30,2021-01-14 13:04:10,2021-01-14 13:04:58,2021-01-30
21858,A22-S028,Mision Tacaagle,ActivacionLTE1900,Sin Asignar,Sin Asignar,Sin Asignar,PTACAG,LITO,,ISM-12327,OA,2021-01-20 10:18:59,2021-01-20 10:18:59,2021-01-20 12:11:59,2021-01-20 16:09:59,2021-02-05 17:15:59,,-24.9802,-58.8203,A22,MOP,Nokia,OA,OA Completado,2021-02-05 17:05:52,,2021-01-20 12:06:01,2021-01-20 12:09:09,2021-02-04 15:22:43,2021-02-05 17:05:52,2021-02-28
21859,A05-S031,Pajonal,ActivacionLTE1900,Sin Asignar,Sin Asignar,Sin Asignar,EPAJON,LITO,,ISM-12118,OA,2021-02-08 10:41:59,2021-02-08 10:41:59,2021-05-14 15:58:59,2021-05-14 16:21:00,2021-05-27 17:15:00,,-32.4239,-60.3021,A05,MOP,Nokia,OA,OA Completado,2021-05-27 17:08:17,,2021-05-14 15:48:30,2021-05-14 15:49:13,2021-05-14 15:49:37,2021-05-27 17:08:17,2021-05-30
21860,A22-S090,Siete Palmas,ActivacionLTE1900,Sin Asignar,Sin Asignar,Sin Asignar,P7PALM,LITO,,ISM-12330,OA,2021-01-21 12:51:59,2021-01-21 12:51:59,2021-01-21 17:15:59,2021-01-21 17:48:59,2021-01-26 13:59:59,,-25.2041,-58.3311,A22,MOP,Nokia,OA,OA Completado,2021-01-26 13:50:39,,2021-01-21 17:10:13,2021-01-21 17:11:08,2021-01-21 17:11:47,2021-01-26 13:50:39,2021-01-30
21861,A17-S060,Laguna Limpia,ActivacionLTE1900,Sin Asignar,Sin Asignar,Sin Asignar,HLAGLM,LITO,,ISM-12128,OA,2021-04-13 08:21:59,2021-04-13 08:21:59,2021-09-16 14:15:00,2021-09-22 04:20:00,2021-11-02 10:32:00,,-26.4956,-59.6806,A17,MOP,Nokia,OA,OA Completado,2021-09-21 15:43:43,,2021-09-16 16:58:28,2021-09-21 15:41:23,2021-09-21 15:42:17,2021-09-21 15:43:43,2021-11-12
21862,A05-S018,Lazo,ActivacionLTE1900,Sin Asignar,Sin Asignar,Sin Asignar,ELAZOO,LITO,,ISM-12121,OA,2021-10-18 12:00:59,2021-10-18 12:00:59,2021-10-18 14:30:00,2021-10-18 17:57:59,2021-10-21 08:15:59,,-32.8709,-59.4182,A05,MOP,Nokia,OA,OA Completado,2021-10-21 08:02:15,,2021-10-18 11:37:23,2021-10-18 11:43:17,2021-10-18 11:43:37,2021-10-21 08:02:15,2021-10-15
21863,A07-S201,Empalme San Carlos,ActivacionLTE1900,Sin Asignar,Sin Asignar,Sin Asignar,ZESCAR,LITO,,ISM-12122,OA,2021-02-03 14:12:59,2021-02-03 14:12:59,2021-02-03 20:33:00,2021-02-04 14:53:00,2021-02-10 13:39:00,,-31.5461,-60.8089,A07,MOP,Nokia,OA,OA Completado,2021-02-10 13:41:45,,2021-02-03 20:33:53,2021-02-03 20:34:40,2021-02-04 12:09:15,2021-02-10 13:41:45,2021-02-28
21864,A14-S014,Chavarria Rep.,ActivacionLTE1900,Sin Asignar,Sin Asignar,Sin Asignar,WCHVRR,LITO,,ISM-12124,OA,2021-01-14 12:54:00,2021-01-14 12:54:00,2021-01-14 13:02:00,2021-01-14 13:38:00,2021-01-27 13:00:00,,-29.0222,-58.4972,A14,MOP,Nokia,OA,OA Completado,2021-01-27 12:51:54,,2021-01-14 12:52:30,2021-01-14 12:53:03,2021-01-14 12:53:25,2021-01-27 12:51:54,2021-01-30
21865,A22-S046,Pozo Del Mortero,ActivacionLTE1900,Sin Asignar,Sin Asignar,Sin Asignar,PPMRTR,LITO,,ISM-12328,OA,2021-01-20 11:14:00,2021-01-20 11:14:00,2021-01-22 12:26:00,2021-01-26 18:40:59,2021-01-27 14:59:00,,-24.3997,-61.0376,A22,MOP,Nokia,OA,OA Completado,2021-01-27 14:47:49,,2021-01-26 16:37:09,2021-01-26 16:39:09,2021-01-26 16:39:42,2021-01-27 14:47:49,2021-01-30
21866,A19-S009,Cabure-I,ActivacionLTE1900,Sin Asignar,Sin Asignar,Sin Asignar,ICBURE,LITO,,ISM-12322,OA,2021-04-09 08:42:00,2021-04-09 08:42:00,2021-04-09 10:52:59,2021-04-09 12:26:00,2021-04-09 12:47:00,,-25.6872,-54.1268,A19,MOP,Nokia,OA,OA Completado,2021-04-09 12:38:48,,2021-04-05 10:05:47,2021-04-09 12:37:56,2021-04-09 12:38:16,2021-04-09 12:38:48,2021-04-30
21867,A18-S160,Santa Ana Ruta 12,ActivacionLTE1900,Sin Asignar,Sin Asignar,Sin Asignar,ISTANR,LITO,,ISM-12320,OA,2021-04-06 14:46:00,2021-04-06 14:46:00,2021-04-06 14:57:59,2021-04-06 16:30:00,2021-04-08 11:30:00,,-27.3834,-55.5848,A18,MOP,Nokia,OA,OA Completado,2021-04-08 11:21:40,,2021-04-05 10:03:56,2021-04-06 11:58:13,2021-04-06 14:49:10,2021-04-08 11:21:40,2021-04-30
21868,A18-S226,"San Vicente Av, Constitucion",ActivacionLTE1900,Sin Asignar,Sin Asignar,Sin Asignar,ISVACN,LITO,,ISM-12321,OA,2021-04-09 11:15:00,2021-04-09 11:15:00,2021-04-09 11:24:00,2021-04-09 12:24:59,2021-04-09 12:47:59,,-27.0043,-54.4736,A18,MOP,Nokia,OA,OA Completado,2021-04-09 12:40:30,,2021-04-05 10:04:49,2021-04-09 12:39:36,2021-04-09 12:39:56,2021-04-09 12:40:30,2021-04-30
21869,A04-S005,Ramallo,ActivacionLTE1900,Sin Asignar,Sin Asignar,Sin Asignar,BRAMAL,LITO,,ISM-12299,OA,2021-04-06 08:19:59,2021-04-06 08:19:59,2021-04-06 15:54:59,2021-04-06 16:30:59,2021-04-07 13:36:59,,-33.4851,-60.0068,A04,MOP,Nokia,OA,OA Completado,2021-04-07 13:25:04,,2021-04-05 09:55:58,2021-04-05 11:16:14,2021-04-05 11:16:31,2021-04-07 13:25:04,2021-04-30
21870,A04-S028,Villa Ramallo,ActivacionLTE1900,Sin Asignar,Sin Asignar,Sin Asignar,BVRAMA,LITO,,ISM-12301,OA,2021-04-06 14:24:59,2021-04-06 14:24:59,2021-04-06 15:49:59,2021-04-06 16:30:59,2021-04-07 14:41:00,,-33.5128,-60.0818,A04,MOP,Nokia,OA,OA Completado,2021-04-08 14:46:29,,2021-04-05 09:56:52,2021-04-06 12:04:22,2021-04-06 12:04:36,2021-04-08 14:46:29,2021-04-30
21871,A04-S357,Villa Ramallo Central,ActivacionLTE1900,Sin Asignar,Sin Asignar,Sin Asignar,BVRAMB,LITO,,ISM-12313,OA,2021-03-02 07:29:00,2021-03-02 07:29:00,2021-03-02 08:51:59,2021-03-02 09:36:59,2021-03-04 20:24:59,,-33.5017,-60.0642,A04,MOP,Nokia,OA,OA Completado,2021-03-04 20:15:16,,2021-03-01 11:36:01,2021-03-01 11:37:02,2021-03-01 11:37:39,2021-03-04 20:15:16,2021-03-30
21872,A04-S358,Ramallo 2,ActivacionLTE1900,Sin Asignar,Sin Asignar,Sin Asignar,BRAMAB,LITO,,ISM-12314,OA,2021-03-02 10:32:59,2021-03-02 10:32:59,2021-03-02 10:59:00,2021-03-04 15:44:00,2021-03-04 20:26:59,,-33.5165,-60.0453,A04,MOP,Nokia,OA,OA Completado,2021-03-04 20:18:05,,2021-03-01 16:11:29,2021-03-01 16:14:10,2021-03-04 20:17:13,2021-03-04 20:18:05,2021-03-30
21873,A04-S218,El Roblecito,ActivacionLTE1900,Sin Asignar,Sin Asignar,Sin Asignar,BROBLE,LITO,,ISM-12309,OA,2021-03-05 13:59:59,2021-03-05 13:59:59,2021-03-05 14:55:00,2021-03-05 18:38:00,2021-03-16 16:20:00,,-33.9115,-59.8694,A04,MOP,Nokia,OA,OA Completado,2021-03-16 16:07:33,,2021-02-26 17:26:24,2021-03-05 15:32:54,2021-03-05 15:33:15,2021-03-16 16:07:33,2021-03-30
21874,A06-S090,3G Ho - San Jorge Poste 1,ActivacionLTE1900,Sin Asignar,Sin Asignar,Sin Asignar,ZSJPO1,LITO,,ISM-7398,OA,2019-12-02 08:46:00,2019-12-02 08:46:00,2019-12-02 16:39:00,2021-04-06 16:32:00,2021-04-08 11:51:59,,-31.8953,-61.8666,A06,MOP,Nokia,OA,OA Completado,2021-04-08 11:44:49,,2021-04-06 15:38:30,2021-04-08 11:42:36,2021-04-08 11:43:15,2021-04-08 11:44:49,2021-04-30
21875,A06-S091,3G Ho - San Jorge Poste 2,ActivacionLTE1900,Sin Asignar,Sin Asignar,Sin Asignar,ZSJPO2,LITO,,ISM-7399,OA,2019-12-02 08:46:00,2019-12-02 08:46:00,2019-12-02 16:41:59,2021-04-06 16:32:00,2021-04-08 11:51:59,,-31.9034,-61.858,A06,MOP,Nokia,OA,OA Completado,2021-04-08 11:44:56,,2021-04-06 15:38:42,2021-04-08 11:42:43,2021-04-08 11:43:23,2021-04-08 11:44:56,2021-04-30
21876,A04-S199,El Paraiso,ActivacionLTE1900,Sin Asignar,Sin Asignar,Sin Asignar,BPARAI,LITO,,ISM-9093,OA,2021-03-05 09:56:00,2021-03-05 09:56:00,2021-03-05 09:56:59,2021-03-08 13:43:59,2021-03-12 15:33:00,,-33.5626,-60.0731,A04,MOP,Nokia,OA,OA Completado,2021-03-12 15:23:19,,2021-03-08 12:09:47,2021-03-08 12:10:44,2021-03-10 09:46:11,2021-03-12 15:23:19,2021-03-30
21877,A08-S052,Liebig,ActivacionLTE1900,Sin Asignar,Sin Asignar,Sin Asignar,ELIEBI,LITO,,ISM-12317,OA,2021-08-18 08:24:00,2021-08-18 08:24:00,2021-10-18 20:51:59,2021-10-19 18:17:00,2021-10-21 08:30:00,,-32.1538,-58.1913,A08,MOP,Nokia,OA,OA Completado,2021-10-21 08:16:36,,2021-10-18 20:38:52,2021-10-18 20:39:28,2021-10-18 20:39:50,2021-10-21 08:16:36,2021-10-15
21878,A04-S246,Alvarez,ActivacionLTE1900,Sin Asignar,Sin Asignar,Sin Asignar,ZALVAR,LITO,,ISM-12310,OA,2021-01-15 16:34:59,2021-01-15 16:34:59,2021-01-19 11:57:00,2021-01-19 12:42:59,2021-01-27 11:46:00,,-33.132,-60.8138,A04,MOP,Nokia,OA,OA Completado,2021-01-27 11:37:28,,2021-01-14 14:49:53,2021-01-14 14:55:40,2021-01-14 14:56:00,2021-01-27 11:37:28,2021-07-31
21879,A04-S262,Coronel Dominguez,ActivacionLTE1900,Sin Asignar,Sin Asignar,Sin Asignar,ZCDOMI,LITO,,ISM-12311,OA,2021-01-15 16:36:00,2021-01-15 16:36:00,2021-01-15 17:21:00,2021-01-15 18:27:00,2021-01-25 16:00:59,,-33.1837,-60.7176,A04,MOP,Nokia,OA,OA Completado,2021-01-25 15:55:25,,2021-01-15 10:22:10,2021-01-15 17:11:54,2021-01-25 15:54:13,2021-01-25 15:55:25,2021-07-31
21880,A04-S330,Pueblo Muñoz,ActivacionLTE1900,Sin Asignar,Sin Asignar,Sin Asignar,ZPMUNO,LITO,,ISM-12312,OA,2021-01-15 16:36:00,2021-01-15 16:36:00,2021-01-15 17:12:00,2021-01-15 18:27:59,2021-01-21 15:06:59,,-33.1714,-60.8969,A04,MOP,Nokia,OA,OA Completado,2021-01-25 15:57:22,,2021-01-15 15:01:23,2021-01-15 17:08:02,2021-01-25 15:56:34,2021-01-25 15:57:22,2021-07-31
21881,A04-S025,Acebal,ActivacionLTE1900,Sin Asignar,Sin Asignar,Sin Asignar,ZACEBA,LITO,,ISM-12300,OA,2021-01-19 08:14:00,2021-01-19 08:14:00,2021-01-19 09:13:00,2021-01-19 14:33:59,2021-01-29 15:22:00,,-33.243,-60.8368,A04,MOP,Nokia,OA,OA Completado,2021-01-29 15:12:33,,2021-01-14 15:09:58,2021-01-14 15:17:35,2021-01-14 15:17:57,2021-01-29 15:12:33,2021-07-31
21882,A04-S038,Oliveros,ActivacionLTE1900,Sin Asignar,Sin Asignar,Sin Asignar,ZOLIVE,LITO,,ISM-12302,OA,2021-01-18 08:24:00,2021-01-18 08:24:00,2021-01-18 09:56:00,2021-01-18 11:21:59,2021-01-29 15:27:00,,-32.5976,-60.8452,A04,MOP,Nokia,OA,OA Completado,2021-01-29 15:18:04,,2021-01-14 17:03:42,2021-01-14 17:04:21,2021-01-14 17:04:38,2021-01-29 15:18:04,2021-07-31
21883,A04-S057,Luis Palacios,ActivacionLTE1900,Sin Asignar,Sin Asignar,Sin Asignar,ZLPALA,LITO,,ISM-12303,OA,2021-04-09 14:28:00,2021-04-09 14:28:00,2021-04-09 14:42:59,2021-04-09 15:06:59,2021-04-19 14:06:00,,-32.7856,-60.9027,A04,MOP,Nokia,OA,OA Completado,2021-04-07 14:27:23,,2021-04-05 09:59:42,2021-04-05 18:48:10,2021-04-05 18:48:26,2021-04-07 14:27:23,2021-07-31
21884,A04-S058,San Jeronimo Sur,ActivacionLTE1900,Sin Asignar,Sin Asignar,Sin Asignar,ZSJSUR,LITO,,ISM-12304,OA,2021-04-12 12:13:00,2021-04-12 12:13:00,2021-04-12 12:17:00,2021-04-12 16:21:59,2021-04-13 11:24:00,,-32.8802,-61.0268,A04,MOP,Nokia,OA,OA Completado,2021-04-13 11:14:52,,2021-04-05 10:02:56,2021-04-12 14:48:09,2021-04-12 14:48:34,2021-04-13 11:14:52,2021-07-31
21885,A04-S183,Andino,ActivacionLTE1900,Sin Asignar,Sin Asignar,Sin Asignar,ZANDIN,LITO,,ISM-12305,OA,2021-01-18 08:26:59,2021-01-18 08:26:59,2021-01-18 10:00:00,2021-01-18 11:24:00,2021-01-29 15:15:00,,-32.6716,-60.8767,A04,MOP,Nokia,OA,OA Completado,2021-01-29 15:07:11,,2021-01-14 16:57:25,2021-01-14 16:58:24,2021-01-14 16:58:48,2021-01-29 15:07:11,2021-07-31
21886,A04-S189,Coronel Arnold,ActivacionLTE1900,Sin Asignar,Sin Asignar,Sin Asignar,ZCARNO,LITO,,ISM-12306,OA,2021-01-18 08:28:59,2021-01-18 08:28:59,2021-01-18 10:02:00,2021-01-18 11:24:59,2021-01-29 15:15:59,,-33.1054,-60.9669,A04,MOP,Nokia,OA,OA Completado,2021-01-29 15:07:15,,2021-01-14 16:59:46,2021-01-14 17:00:27,2021-01-14 17:00:46,2021-01-29 15:07:15,2021-07-31
21887,A04-S208,Pujato,ActivacionLTE1900,Sin Asignar,Sin Asignar,Sin Asignar,ZPUJAT,LITO,,ISM-12308,OA,2021-01-18 08:32:00,2021-01-18 08:32:00,2021-01-18 10:03:00,2021-01-18 11:26:59,2021-01-29 15:17:00,,-33.0168,-61.0631,A04,MOP,Nokia,OA,OA Completado,2021-01-29 15:07:24,,2021-01-14 17:01:59,2021-01-14 17:02:32,2021-01-14 17:02:48,2021-01-29 15:07:24,2021-07-31
21888,A18-S034,Apostoles II (Acceso),ActivacionLTE1900,Sin Asignar,Sin Asignar,Sin Asignar,IAPST2,LITO,,ISM-12318,OA,2021-03-03 08:06:00,2021-03-03 08:06:00,2021-03-03 16:25:59,2021-03-03 16:32:00,2021-03-05 11:12:00,,-27.8642,-55.7067,A18,MOP,Nokia,OA,OA Completado,2021-03-05 11:01:58,,2021-03-02 10:49:09,2021-03-02 10:49:41,2021-03-02 10:49:58,2021-03-05 11:01:58,2021-03-30
21889,A18-S058,Colonia Apostoles,ActivacionLTE1900,Sin Asignar,Sin Asignar,Sin Asignar,ICLAPS,LITO,,ISM-12319,OA,2021-03-04 08:46:59,2021-03-04 08:46:59,2021-03-04 10:07:59,2021-03-04 13:43:59,2021-03-25 15:40:59,,-27.9115,-55.8072,A18,MOP,Nokia,OA,OA Completado,2021-03-05 11:03:01,,2021-03-02 16:21:14,2021-03-02 16:24:46,2021-03-02 16:25:08,2021-03-05 11:03:01,2021-03-30
21901,A18-S130,Mojon Grande,ActivacionLTE1900,Sin Asignar,Sin Asignar,Sin Asignar,IMJGDE,LITO,,ISM-12329,OA,2021-01-21 10:34:00,2021-01-21 10:34:00,2021-01-21 10:36:00,2021-01-21 13:32:00,2021-01-27 14:55:00,,-27.7128,-55.1572,A18,MOP,Nokia,OA,OA Completado,2021-01-27 13:20:52,,2021-01-20 17:02:05,2021-01-20 17:02:35,2021-01-20 17:03:03,2021-01-27 13:20:52,2021-01-30
21902,A22-S071,Subteniente Perin Ii,ActivacionLTE1900,Sin Asignar,Sin Asignar,Sin Asignar,PSTPRN,LITO,,ISM-12342,OA,2021-01-29 08:46:00,2021-01-29 08:46:00,2021-01-29 11:21:59,2021-01-29 14:24:59,2021-02-02 10:39:00,,-25.5319,-60.0182,A22,MOP,Nokia,OA,OA Completado,2021-02-02 10:33:24,,2021-01-27 18:03:46,2021-02-02 10:31:53,2021-02-02 10:32:10,2021-02-02 10:33:24,2021-02-28
21903,A18-S084,Colonia Garabi,ActivacionLTE1900,Sin Asignar,Sin Asignar,Sin Asignar,IGARBI,LITO,,ISM-12376,OA,2021-02-12 09:06:59,2021-02-12 09:06:59,2021-02-12 18:47:59,2021-02-12 23:05:00,2021-02-18 08:19:59,,-28.2294,-55.7844,A18,MOP,Nokia,OA,OA Completado,2021-02-18 08:27:36,,2021-02-12 18:43:42,2021-02-12 18:44:20,2021-02-12 18:44:48,2021-02-18 08:27:36,2021-02-28
21935,A18-S059,Colonia Alberdi,ActivacionLTE1900,Sin Asignar,Sin Asignar,Sin Asignar,ICALBR,LITO,,ISM-12347,OA,2021-02-02 09:49:00,2021-02-02 09:49:00,2021-02-02 09:51:59,2021-02-02 11:42:59,2021-02-08 10:43:59,,-27.3633,-55.23,A18,MOP,Nokia,OA,OA Completado,2021-02-08 10:35:17,,2021-01-29 11:52:00,2021-02-02 12:10:04,2021-02-02 12:10:50,2021-02-08 10:35:17,2021-02-28
21941,A14-S096,Mariano I. Loza Centro,ActivacionLTE1900,Sin Asignar,Sin Asignar,Sin Asignar,WLZACT,LITO,,ISM-12331,OA,2021-02-10 09:18:59,2021-02-10 09:18:59,2021-02-10 11:10:59,2021-02-10 12:24:00,2021-02-17 15:40:00,,-29.3775,-58.1958,A14,MOP,Nokia,OA,OA Completado,2021-02-17 15:32:14,,2021-02-10 11:06:38,2021-02-10 11:10:03,2021-02-10 11:10:31,2021-02-17 15:32:14,2021-02-28
21963,A22-S043,Laguna Naick - Neck,ActivacionLTE1900,Sin Asignar,Sin Asignar,Sin Asignar,PNNECK,LITO,,ISM-12333,OA,2021-01-25 09:24:59,2021-01-25 09:24:59,2021-02-05 16:25:00,2021-02-05 18:47:00,2021-02-08 11:01:59,,-25.2148,-58.1251,A22,MOP,Nokia,OA,OA Completado,2021-02-08 10:52:00,,2021-02-08 00:07:14,2021-02-08 00:08:37,2021-02-08 00:09:23,2021-02-08 10:52:00,2021-02-28
21966,A07-S005,El Pingo,ActivacionLTE1900,Sin Asignar,Sin Asignar,Sin Asignar,EPINGO,LITO,,ISM-12123,OA,2021-02-01 11:33:00,2021-02-01 11:33:00,2021-02-04 12:13:00,2021-02-04 14:51:59,2021-02-10 13:48:59,,-31.5805,-59.891,A07,MOP,Nokia,OA,OA Completado,2021-02-10 13:42:24,,2021-02-04 12:06:46,2021-02-04 12:07:42,2021-02-04 12:08:06,2021-02-10 13:42:24,2021-02-28
21970,A22-S091,Laguna Naick Neck Av. Del Labrador,ActivacionLTE1900,Sin Asignar,Sin Asignar,Sin Asignar,PNNLBR,LITO,,ISM-12332,OA,2021-01-25 09:24:00,2021-01-25 09:24:00,2021-02-05 16:12:00,2021-02-05 18:49:00,2021-02-12 17:30:59,,-25.2285,-58.1173,A22,MOP,Nokia,OA,OA Completado,2021-02-12 17:45:03,,2021-02-09 16:38:04,2021-02-12 17:28:45,2021-02-12 17:44:33,2021-02-12 17:45:03,2021-02-28
21972,A07-S002,Pueblo Alcaraz,ActivacionLTE1900,Sin Asignar,Sin Asignar,Sin Asignar,EPALCA,LITO,,ISM-12359,OA,2021-02-08 10:27:00,2021-02-08 10:27:00,2021-02-08 13:34:00,2021-02-09 17:15:00,2021-02-12 16:52:59,,-31.4557,-59.5995,A07,MOP,Nokia,OA,OA Completado,2021-02-12 16:43:54,,2021-02-09 16:49:13,2021-02-09 16:50:02,2021-02-09 16:50:24,2021-02-12 16:43:54,2021-02-28
21976,A05-S013,Rincon Del Nogoya,ActivacionLTE1900,Sin Asignar,Sin Asignar,Sin Asignar,ERDNOG,LITO,,ISM-12120,OA,2021-01-08 09:13:00,2021-01-08 09:13:00,2021-02-11 20:57:00,2021-02-12 10:54:59,2021-02-18 08:23:00,,-32.7789,-59.91,A05,MOP,Nokia,OA,OA Completado,2021-02-18 08:30:25,,2021-02-18 08:28:44,2021-02-18 08:29:27,2021-02-18 08:29:45,2021-02-18 08:30:25,2021-02-28
21981,A18-S077,Ruta 12 Embalse Yacyreta,ActivacionLTE1900,Sin Asignar,Sin Asignar,Sin Asignar,WYCRTA,LITO,,ISM-12377,OA,2021-02-18 07:50:00,2021-02-18 07:50:00,2021-02-18 08:24:00,2021-02-18 09:11:00,2021-02-18 09:35:00,,-27.6211,-56.3972,A18,MOP,Nokia,OA,OA Completado,2021-02-18 09:25:39,,2021-02-18 08:32:24,2021-02-18 08:33:06,2021-02-18 09:24:56,2021-02-18 09:25:39,2021-10-22
21982,A22-S049,Tres Lagunas,ActivacionLTE1900,Sin Asignar,Sin Asignar,Sin Asignar,P3LAGN,LITO,,ISM-12378,OA,2021-02-26 13:00:59,2021-02-26 13:00:59,2021-02-27 10:30:59,2021-03-01 16:50:00,2021-04-09 12:45:00,,-25.2171,-58.5104,A22,MOP,Nokia,OA,OA Completado,2021-04-09 12:34:47,,2021-02-24 14:38:17,2021-02-27 10:24:15,2021-02-27 10:24:35,2021-04-09 12:34:47,2021-02-28
21988,A14-S048,Colonia Libertad,ActivacionLTE1900,Sin Asignar,Sin Asignar,Sin Asignar,WCLBRT,LITO,,ISM-12380,OA,2021-03-04 08:10:00,2021-03-04 08:10:00,2021-03-04 10:56:00,2021-03-05 18:33:00,2021-03-08 20:26:59,,-30.0439,-57.8263,A14,MOP,Nokia,OA,OA Completado,2021-03-08 20:18:25,,2021-03-03 14:43:13,2021-03-03 14:44:07,2021-03-05 11:20:49,2021-03-08 20:18:25,2021-03-30
21989,A07-S224,Puerto Curtiembre,ActivacionLTE1900,Sin Asignar,Sin Asignar,Sin Asignar,EPCURT,LITO,,ISM-12125,OA,2021-03-01 09:22:59,2021-03-01 09:22:59,2021-03-01 11:35:59,2021-03-01 16:52:59,2021-03-04 10:50:00,,-31.4621,-60.1659,A07,MOP,Nokia,OA,OA Completado,2021-03-04 10:40:29,,2021-02-26 19:43:55,2021-03-04 09:26:19,2021-03-04 09:26:48,2021-03-04 10:40:29,2021-03-30
21992,A13-S056,El Araza,ActivacionLTE1900,Sin Asignar,Sin Asignar,Sin Asignar,ZARAZA,LITO,,ISM-12379,OA,2021-02-26 12:58:59,2021-02-26 12:58:59,2021-02-27 10:36:59,2021-03-01 16:50:59,2021-03-29 12:38:00,,-29.1328,-59.9458,A13,MOP,Nokia,OA,OA Completado,2021-03-29 12:27:45,,2021-02-27 13:17:07,2021-02-27 13:18:55,2021-03-05 11:39:05,2021-03-29 12:27:45,2021-03-30
21999,A02-S055,Morrison,ActivacionLTE1900,Sin Asignar,Sin Asignar,Sin Asignar,XMORRI,MEDI,,ISM-6655,OA,2021-02-04 11:30:59,2021-02-04 11:30:59,2021-02-04 12:40:59,2021-02-09 10:07:00,2021-02-10 11:05:00,,-32.5827,-62.836,A02,MOP,Huawei,OA,OA Completado,2021-03-01 13:24:51,,2021-03-01 13:23:00,2021-03-01 13:23:51,2021-03-01 13:24:16,2021-03-01 13:24:51,2021-03-30
22000,A02-S048,Tio Pujio,ActivacionLTE1900,Sin Asignar,Sin Asignar,Sin Asignar,XPUJIO,MEDI,,ISM-6652,OA,2021-01-28 16:16:00,2021-01-28 16:16:00,2021-01-28 16:21:00,2021-01-29 14:28:00,2021-02-02 09:47:00,,-32.2939,-63.3591,A02,MOP,Huawei,OA,OA Completado,2021-03-01 14:57:58,,2021-03-01 14:55:58,2021-03-01 14:56:30,2021-03-01 14:56:58,2021-03-01 14:57:58,2021-08-31
22003,A22-S021,General Mosconi,ActivacionLTE1900,Sin Asignar,Sin Asignar,Sin Asignar,PGMOSC,LITO,,ISM-13690,OA,2021-03-03 08:33:00,2021-03-03 08:33:00,2021-03-03 13:59:00,2021-03-03 16:23:59,2021-03-10 14:57:59,,-23.1928,-62.3103,A22,MOP,Nokia,OA,OA Completado,2021-03-05 10:59:19,,2021-03-03 13:48:04,2021-03-03 13:50:22,2021-03-03 13:50:37,2021-03-05 10:59:19,2021-03-30
22381,A22-S001,Los Chiriguanos,ActivacionLTE1900,Sin Asignar,Sin Asignar,Sin Asignar,PCHRGN,LITO,,ISM-13708,OA,2021-03-12 10:05:00,2021-03-12 10:05:00,2021-03-12 10:09:59,2021-03-12 11:35:00,2021-03-12 11:37:59,,-24.1,-61.4667,A22,MOP,Nokia,OA,OA Completado,2021-03-12 11:36:01,,2021-03-10 16:53:50,2021-03-10 16:55:01,2021-03-12 11:34:43,2021-03-12 11:36:01,2021-03-30
22385,A04-S165,Christophersen,ActivacionLTE1900,Sin Asignar,Sin Asignar,Sin Asignar,ZCHRIS,LITO,,ISM-13699,OA,2021-03-09 15:58:59,2021-03-09 15:58:59,2021-03-09 16:00:59,2021-03-09 17:10:00,2021-03-12 10:59:00,,-34.1846,-62.0252,A04,MOP,NOKIA,OA,OA Completado,2021-03-12 10:49:30,,2021-03-09 15:54:01,2021-03-09 15:54:34,2021-03-09 15:54:49,2021-03-12 10:49:30,2021-03-30
22387,A14-S030,Felipe Yofre,ActivacionLTE1900,Sin Asignar,Sin Asignar,Sin Asignar,WFYFRE,LITO,,ISM-12127,OA,2021-03-09 15:58:59,2021-03-09 15:58:59,2021-03-10 09:20:59,2021-03-12 16:02:00,2021-03-15 09:42:59,,-29.1066,-58.3386,A14,MOP,Nokia,OA,OA Completado,2021-03-15 09:32:13,,2021-03-10 09:10:38,2021-03-10 09:11:36,2021-03-12 15:02:21,2021-03-15 09:32:13,2021-03-30
22390,A13-S058,Maussy,ActivacionLTE1900,Sin Asignar,Sin Asignar,Sin Asignar,ZMOSSY,LITO,,ISM-13702,OA,2021-03-10 15:27:00,2021-03-10 15:27:00,2021-03-10 17:39:59,2021-03-10 17:57:59,2021-03-12 10:05:00,,-29.0192,-59.6865,A13,MOP,Nokia,OA,OA Completado,2021-03-12 09:57:18,,2021-03-10 17:32:03,2021-03-10 17:33:23,2021-03-10 17:34:23,2021-03-12 09:57:18,2021-03-30
22391,A08-S069,Herrera,ActivacionLTE1900,Sin Asignar,Sin Asignar,Sin Asignar,EHERRE,LITO,,ISM-13788,OA,2021-03-11 11:28:00,2021-03-11 11:28:00,2021-03-11 16:07:00,2021-03-12 12:51:59,2021-03-17 15:24:00,,-32.4357,-58.6335,A08,MOP,Nokia,OA,OA Completado,2021-03-17 15:46:30,,2021-03-11 16:03:58,2021-03-17 15:43:12,2021-03-17 15:43:39,2021-03-17 15:46:30,2021-03-30
22415,A14-S019,Libertador,ActivacionLTE1900,Sin Asignar,Sin Asignar,Sin Asignar,WLBRTD,LITO,,ISM-13694,OA,2021-03-08 08:46:59,2021-03-08 08:46:59,2021-03-11 15:02:59,2021-03-11 17:12:59,2021-03-15 15:40:59,,-30.2172,-59.3931,A14,MOP,Nokia,OA,OA Completado,2021-03-15 15:31:52,,2021-03-11 15:43:33,2021-03-11 15:44:15,2021-03-11 15:44:31,2021-03-15 15:31:52,2021-03-30
22420,A03-S363,Villa Concepcion Del Tio,ActivacionLTE1900,MATIAS EZEQUIEL,COSENTINO,M. COSENTINO,XVCTIO,MEDI,,ISM-6767,OA,2021-10-06 10:54:59,2021-10-06 10:54:59,2021-10-06 11:14:00,2021-10-06 15:58:00,2021-11-03 15:58:00,,-31.3238,-62.8147,A03,MOP,Huawei,OA,OA Completado,2021-11-03 16:24:28,,2021-10-06 10:01:08,2021-10-06 10:07:36,2021-10-06 14:38:36,2021-11-03 16:24:28,2021-10-15
22421,A02-S068,Las Varas,ActivacionLTE1900,Sin Asignar,Sin Asignar,Sin Asignar,XLVARA,MEDI,,ISM-6662,OA,2021-04-08 11:08:59,2021-04-08 11:08:59,2021-04-12 12:24:59,2021-04-14 17:08:00,2021-04-23 17:41:00,,-31.8,-62.6167,A02,MOP,Huawei,OA,OA Completado,2021-04-23 17:29:04,,2021-04-12 12:15:51,2021-04-12 12:16:22,2021-04-23 17:27:07,2021-04-23 17:29:04,2021-04-30
22423,A02-S076,Arroyo Algodon,ActivacionLTE1900,Sin Asignar,Sin Asignar,Sin Asignar,XARALG,MEDI,,ISM-6664,OA,2021-04-08 11:06:00,2021-04-08 11:06:00,2021-09-07 15:20:59,2021-09-22 01:50:59,2021-09-22 11:08:59,,-32.2004,-63.1612,A02,MOP,Huawei,OA,Finalizado,2021-09-24 00:00:00,,2021-09-07 15:03:18,2021-09-07 15:03:58,2021-09-17 10:52:50,2021-09-24 00:00:00,2021-08-31
22432,A04-S034,Maggiolo,ActivacionLTE1900,Sin Asignar,Sin Asignar,Sin Asignar,ZMAGIO,LITO,,ISM-13733,OA,2021-03-25 09:13:59,2021-03-25 09:13:59,2021-03-25 10:27:00,2021-03-30 17:12:59,2021-03-30 17:55:00,,-33.7226,-62.2466,A04,MOP,Nokia,OA,OA Completado,2021-03-30 17:44:45,,2021-03-25 10:17:24,2021-03-30 10:25:17,2021-03-30 10:26:05,2021-03-30 17:44:45,2021-03-30
22433,A14-S024,Torrent,ActivacionLTE1900,Sin Asignar,Sin Asignar,Sin Asignar,WTRRNT,LITO,,ISM-13710,OA,2021-03-15 09:29:59,2021-03-15 09:29:59,2021-03-16 14:53:00,2021-03-16 15:40:00,2021-03-19 11:30:59,,-28.884,-56.4011,A14,MOP,Nokia,OA,OA Completado,2021-03-19 11:28:08,,2021-03-16 16:44:25,2021-03-16 16:45:31,2021-03-16 16:45:56,2021-03-19 11:28:08,2021-10-22
22434,A14-S012,Guaviravi Rep.,ActivacionLTE1900,Sin Asignar,Sin Asignar,Sin Asignar,WGUVRY,LITO,,ISM-13713,OA,2021-03-16 11:01:00,2021-03-16 11:01:00,2021-07-01 14:55:59,2021-07-02 09:51:59,2021-07-05 13:54:00,,-29.3664,-56.8315,A14,MOP,Nokia,OA,OA Completado,2021-07-05 13:42:09,,2021-07-01 14:49:26,2021-07-01 14:52:30,2021-07-02 09:58:47,2021-07-05 13:42:09,2021-07-30
22435,A07-S194,San Carlos Sur Poste 1,ActivacionLTE1900,Sin Asignar,Sin Asignar,Sin Asignar,ZSCPO1,LITO,,ISM-13692,OA,2021-03-08 08:21:59,2021-03-08 08:21:59,2021-03-17 13:48:59,2021-03-17 16:07:00,2021-03-19 09:54:00,,-31.7595,-61.1015,A07,MOP,Nokia,OA,OA Completado,2021-03-19 09:42:53,,2021-03-17 13:35:09,2021-03-19 09:41:42,2021-03-19 09:41:59,2021-03-19 09:42:53,2021-03-30
22436,A07-S200,Campo Andino,ActivacionLTE1900,Sin Asignar,Sin Asignar,Sin Asignar,ZCAMAN,LITO,,ISM-13765,OA,2021-05-26 16:38:00,2021-05-26 16:38:00,2021-06-11 12:35:00,2021-06-11 13:05:59,2021-06-15 08:46:00,,-31.2386,-60.5302,A07,MOP,Nokia,OA,OA Completado,2021-06-15 08:35:56,,2021-05-14 17:40:53,2021-06-11 12:31:24,2021-06-11 12:31:46,2021-06-15 08:35:56,2021-06-30
22442,A02-S018,Noetinger,ActivacionLTE1900,Sin Asignar,Sin Asignar,Sin Asignar,XNOETI,MEDI,,ISM-6638,OA,2021-03-15 08:19:59,2021-03-15 08:19:59,2021-03-15 09:11:59,2021-03-15 11:57:00,2021-03-17 11:15:59,,-32.3661,-62.3122,A02,MOP,Huawei,OA,OA Completado,2021-03-17 12:31:35,,2021-03-17 12:26:45,2021-03-17 12:27:28,2021-03-17 12:27:48,2021-03-17 12:31:35,2021-03-30
22451,A02-S022,Arroyo Cabral,ActivacionLTE1900,Sin Asignar,Sin Asignar,Sin Asignar,XARCAB,MEDI,,ISM-6640,OA,2021-03-19 09:56:59,2021-03-19 09:56:59,2021-03-19 11:55:59,2021-03-19 15:47:59,2021-03-26 10:03:00,,-32.4903,-63.4,A02,MOP,Huawei,OA,OA Completado,2021-03-26 10:00:43,,2021-03-26 09:59:00,2021-03-26 09:59:41,2021-03-26 10:00:09,2021-03-26 10:00:43,2021-08-31
22452,A02-S104,Silvio Pellico,ActivacionLTE1900,Sin Asignar,Sin Asignar,Sin Asignar,XPELLI,MEDI,,ISM-6676,OA,2021-03-26 14:57:00,2021-03-26 14:57:00,2021-03-26 15:13:00,2021-03-26 15:24:59,2021-03-26 16:09:59,,-32.2507,-62.9303,A02,MOP,Huawei,OA,OA Completado,2021-03-26 16:06:59,,2021-03-26 16:05:17,2021-03-26 16:06:03,2021-03-26 16:06:34,2021-03-26 16:06:59,2021-08-31
22453,A02-S090,Cintra,ActivacionLTE1900,Sin Asignar,Sin Asignar,Sin Asignar,XCINTR,MEDI,,ISM-6671,OA,2021-03-19 09:42:00,2021-03-19 09:42:00,2021-03-19 11:57:00,2021-03-19 15:47:00,2021-04-01 10:14:00,,-32.3081,-62.6511,A02,MOP,Huawei,OA,OA Completado,2021-04-01 10:06:38,,2021-03-30 10:12:08,2021-03-30 10:13:04,2021-03-30 10:14:11,2021-04-01 10:06:38,2021-03-30
22454,A02-S014,Ballesteros,ActivacionLTE1900,MATIAS EZEQUIEL,COSENTINO,M. COSENTINO,XBALLE,MEDI,,ISM-6636,OA,2021-11-02 16:00:59,2021-11-02 16:00:59,2021-11-03 11:55:00,2021-11-03 19:05:00,2021-11-04 08:53:00,,-32.5438,-62.9841,A02,MOP,Huawei,OA,OA Completado,2021-11-04 10:45:44,,2021-10-07 15:55:07,2021-10-07 15:56:42,2021-11-03 15:11:30,2021-11-04 10:45:44,2021-10-15
22455,A02-S101,Punta Del Agua,ActivacionLTE1900,Sin Asignar,Sin Asignar,Sin Asignar,XPUNAG,MEDI,,ISM-6675,OA,2021-03-19 10:09:00,2021-03-19 10:09:00,2021-03-19 11:57:59,2021-03-19 15:45:59,2021-03-30 10:07:00,,-32.5758,-63.8113,A02,MOP,Huawei,OA,OA Completado,2021-03-30 09:59:49,,2021-03-30 09:57:07,2021-03-30 09:58:02,2021-03-30 09:58:37,2021-03-30 09:59:49,2021-03-30
22457,A02-S064,Las Perdices,ActivacionLTE1900,Sin Asignar,Sin Asignar,Sin Asignar,XLPERD,MEDI,,ISM-6660,OA,2021-04-12 16:43:00,2021-04-12 16:43:00,2021-04-14 15:40:59,2021-04-14 16:03:59,2021-04-26 11:30:59,,-32.6793,-63.7038,A02,MOP,Huawei,OA,OA Completado,2021-04-26 11:21:00,,2021-04-12 11:39:49,2021-04-12 11:40:34,2021-04-26 11:20:23,2021-04-26 11:21:00,2021-04-30
22458,A02-S089,Saira,ActivacionLTE1900,Sin Asignar,Sin Asignar,Sin Asignar,XSAIRA,MEDI,,ISM-6670,OA,2021-04-12 16:45:59,2021-04-12 16:45:59,2021-04-14 15:42:59,2021-04-14 17:08:59,2021-04-26 11:42:59,,-32.408,-62.1012,A02,MOP,Huawei,OA,OA Completado,2021-04-26 11:27:12,,2021-04-12 15:47:47,2021-04-12 15:48:23,2021-04-26 11:26:34,2021-04-26 11:27:12,2021-04-30
22473,A14-S021,El Pararrayo,ActivacionLTE1900,Sin Asignar,Sin Asignar,Sin Asignar,WELPRY,LITO,,ISM-13727,OA,2021-03-22 15:06:59,2021-03-22 15:06:59,2021-03-25 13:34:59,2021-03-25 14:03:59,2021-03-28 18:51:00,,-29.9002,-57.6031,A14,MOP,Nokia,OA,OA Completado,2021-03-28 18:40:58,,2021-03-25 14:47:02,2021-03-25 14:48:13,2021-03-25 14:49:18,2021-03-28 18:40:58,2021-03-30
22474,A04-S015,Diego De Alvear,ActivacionLTE1900,Sin Asignar,Sin Asignar,Sin Asignar,ZDALVE,LITO,,ISM-13715,OA,2021-03-31 08:26:59,2021-03-31 08:26:59,2021-03-31 18:45:00,2021-04-05 10:29:00,2021-04-06 17:41:00,,-34.3694,-62.1278,A04,MOP,Nokia,OA,OA Completado,2021-04-06 17:32:58,,2021-03-29 10:23:36,2021-03-31 18:40:25,2021-03-31 18:41:03,2021-04-06 17:32:58,2021-03-30
22478,A18-S121,Cerro Torre,ActivacionLTE1900,Sin Asignar,Sin Asignar,Sin Asignar,ICTORE,LITO,,ISM-13803,OA,2021-03-30 17:48:59,2021-03-30 17:48:59,2021-03-30 18:00:59,2021-03-31 09:45:00,2021-04-05 19:02:00,,-27.7022,-55.2789,A18,MOP,Nokia,OA,OA Completado,2021-04-05 18:53:10,,2021-03-30 17:42:35,2021-03-30 17:43:44,2021-03-30 17:53:33,2021-04-05 18:53:10,2021-03-30
23947,A02-S137,Las Isletillas,ActivacionLTE1900,Sin Asignar,Sin Asignar,Sin Asignar,XLISLE,MEDI,,ISM-6683,OA,2021-03-30 08:59:00,2021-03-30 08:59:00,2021-03-30 12:06:59,2021-04-05 11:46:59,2021-04-05 13:25:59,,-32.5098,-63.9287,A02,MOP,Huawei,OA,OA Completado,2021-04-05 13:31:36,,2021-04-05 13:29:58,2021-04-05 13:30:35,2021-04-05 13:31:03,2021-04-05 13:31:36,2021-04-30
23948,A02-S061,Oliva Nextel,ActivacionLTE1900,Sin Asignar,Sin Asignar,Sin Asignar,XOLINX,MEDI,,ISM-4873,OA,2021-03-30 08:39:00,2021-03-30 08:39:00,2021-03-30 11:53:00,2021-04-06 16:27:59,2021-04-06 16:30:00,,-32.0289,-63.5808,A02,MOP,Huawei,OA,OA Completado,2021-04-06 16:28:28,,2021-03-29 20:00:55,2021-04-06 16:27:38,2021-04-06 16:27:58,2021-04-06 16:28:28,2021-04-30
24129,A09-S005,Chamical Rep.,ActivacionLTE1900,Sin Asignar,Sin Asignar,Sin Asignar,FCHAMI,MEDI,,ISM-6811,OA,2021-04-16 12:38:59,2021-04-16 12:38:59,2021-04-20 10:14:59,2021-04-20 13:07:59,2021-04-20 16:52:00,,-30.3933,-66.3169,A09,MOP,Huawei,OA,OA Completado,2021-04-20 16:47:11,,2021-04-20 10:13:26,2021-04-20 10:14:07,2021-04-20 16:46:36,2021-04-20 16:47:11,2021-08-30
24130,A12-S061,Villa Mailin (Mudanza),ActivacionLTE1900,Sin Asignar,Sin Asignar,Sin Asignar,GMAILI,MEDI,,ISM-15097,OA,2021-11-10 15:33:59,2021-11-10 15:33:59,2021-11-11 12:18:59,2021-11-11 17:46:59,2021-11-12 11:15:00,,-28.4841,-63.2735,A12,MOP,Huawei,OA,OA Completado,2021-11-12 11:04:58,,2021-11-11 12:00:47,2021-11-11 12:01:48,2021-11-11 15:07:59,2021-11-12 11:04:58,2021-12-17
24131,A11-S396,Vinara,ActivacionLTE1900,Sin Asignar,Sin Asignar,Sin Asignar,GVINAR,MEDI,,ISM-15070,OA,2021-11-01 16:45:59,2021-11-01 16:45:59,2021-11-02 15:22:00,2021-11-02 17:05:00,2021-11-08 09:33:00,,-27.4055,-64.8064,A11,MOP,Huawei,OA,OA Completado,2021-11-08 09:28:37,,2021-11-08 09:22:48,2021-11-08 09:23:39,2021-11-08 09:24:12,2021-11-08 09:28:37,2021-12-31
24132,A10-S099,Miraflores,ActivacionLTE1900,Sin Asignar,Sin Asignar,Sin Asignar,KMIRAF,MEDI,,ISM-5177,OA,2021-10-19 16:47:00,2021-10-19 16:47:00,2021-10-19 16:50:59,2021-10-20 17:53:00,2021-10-22 16:48:00,,-28.5916,-65.898,A10,MOP,Huawei,OA,OA Completado,2021-10-22 16:30:10,,2021-10-19 16:14:46,2021-10-19 16:28:44,2021-10-20 16:48:11,2021-10-22 16:30:10,2021-12-31
24134,A03-S019,Montecristo Rep.,ActivacionLTE1900,Sin Asignar,Sin Asignar,Sin Asignar,XMOCRI,MEDI,,ISM-5225,OA,2021-04-08 09:15:59,2021-04-08 09:15:59,2021-09-16 12:11:00,2021-09-27 18:44:00,2021-11-03 12:15:00,,-31.343,-63.9283,A03,MOP,Huawei,OA,OA Completado,2021-09-27 10:27:18,,2021-09-16 16:13:00,2021-09-16 16:39:01,2021-09-27 10:26:25,2021-09-27 10:27:18,2021-11-10
24137,A17-S053,Los Palmares,ActivacionLTE1900,Sin Asignar,Sin Asignar,Sin Asignar,HLPLMR,LITO,,ISM-13806,OA,2021-04-15 13:38:00,2021-04-15 13:38:00,2021-06-24 18:54:59,2021-07-05 18:15:59,2021-07-06 10:29:00,,-27.577,-59.1625,A17,MOP,Nokia,OA,OA Completado,2021-07-05 15:17:50,,2021-06-24 18:43:44,2021-07-05 15:15:15,2021-07-05 15:16:30,2021-07-05 15:17:50,2021-07-30
24138,A17-S077,Colonia Cabral Cue,ActivacionLTE1900,Sin Asignar,Sin Asignar,Sin Asignar,HCBRCU,LITO,,ISM-13807,OA,2021-04-12 09:58:00,2021-04-12 09:58:00,2021-06-15 16:29:00,2021-06-15 16:57:59,2021-06-23 09:42:59,,-26.9197,-58.8022,A17,MOP,Nokia,OA,OA Completado,2021-06-23 09:33:01,,2021-06-15 16:18:41,2021-06-15 16:21:46,2021-06-16 15:16:33,2021-06-23 09:33:01,2021-06-30
24139,A18-S021,Cerro Azul Rep.,ActivacionLTE1900,Sin Asignar,Sin Asignar,Sin Asignar,ICEAZR,LITO,,ISM-13808,OA,2021-04-12 08:33:00,2021-04-12 08:33:00,2021-04-16 18:36:00,2021-04-19 18:42:00,2021-04-26 08:39:00,,-27.6442,-55.5892,A18,MOP,Nokia,OA,OA Completado,2021-04-26 08:33:33,,2021-04-15 09:01:12,2021-04-16 18:26:26,2021-04-16 18:26:47,2021-04-26 08:33:33,2021-04-30
24140,A18-S035,San Borjita,ActivacionLTE1900,Sin Asignar,Sin Asignar,Sin Asignar,ISBRGT,LITO,,ISM-13809,OA,2021-07-14 15:15:00,2021-07-14 15:15:00,2021-07-14 15:18:00,2021-07-15 16:41:59,2021-07-23 13:50:00,,-27.5206,-56.1602,A18,MOP,Nokia,OA,OA Completado,2021-07-23 13:37:23,,2021-07-14 15:07:51,2021-07-14 15:12:20,2021-07-15 09:13:09,2021-07-23 13:37:23,2021-10-22
24141,A18-S039,Playadito,ActivacionLTE1900,Sin Asignar,Sin Asignar,Sin Asignar,IPLYDT,LITO,,ISM-13810,OA,2021-05-12 13:16:59,2021-05-12 13:16:59,2021-05-12 14:30:00,2021-05-12 15:56:59,2021-05-17 11:41:00,,-27.9054,-55.945,A18,MOP,Nokia,OA,OA Completado,2021-05-17 11:31:28,,2021-05-13 15:38:03,2021-05-13 15:39:28,2021-05-13 15:40:18,2021-05-17 11:31:28,2021-10-22
24142,A18-S045,Las Marias (Gdor. Virasoro),ActivacionLTE1900,Sin Asignar,Sin Asignar,Sin Asignar,WLMRAS,LITO,,ISM-13811,OA,2021-04-06 08:55:59,2021-04-06 08:55:59,2021-04-08 17:59:00,2021-04-09 12:27:59,2021-04-19 11:26:00,,-28.1107,-56.046,A18,MOP,Nokia,OA,OA Completado,2021-04-19 11:15:59,,2021-04-09 15:35:50,2021-04-09 15:38:37,2021-04-09 15:40:30,2021-04-19 11:15:59,2021-10-22
24143,A18-S053,Parada Leis,ActivacionLTE1900,Sin Asignar,Sin Asignar,Sin Asignar,IPLEIS,LITO,,ISM-13820,OA,2021-04-29 14:17:00,2021-04-29 14:17:00,2021-04-29 14:53:00,2021-04-29 14:53:59,2021-05-03 20:59:00,,-27.6042,-55.8319,A18,MOP,Nokia,OA,OA Completado,2021-05-03 20:48:37,,2021-04-29 15:01:11,2021-04-29 16:40:51,2021-04-29 16:41:21,2021-05-03 20:48:37,2021-04-30
24195,A07-S037,Grutly,ActivacionLTE1900,Sin Asignar,Sin Asignar,Sin Asignar,ZGRUTL,LITO,,ISM-13769,OA,2021-04-12 08:51:59,2021-04-12 08:51:59,2021-04-12 18:38:59,2021-04-13 13:41:59,2021-04-14 09:22:00,,-31.2682,-61.0761,A07,MOP,Nokia,OA,OA Completado,2021-04-21 12:11:18,,2021-04-09 19:09:18,2021-04-21 12:10:28,2021-04-21 12:10:46,2021-04-21 12:11:18,2021-04-30
24196,A13-S035,Estacion El Sombrerito,ActivacionLTE1900,Sin Asignar,Sin Asignar,Sin Asignar,ZELSOM,LITO,,ISM-13714,OA,2021-04-06 08:17:00,2021-04-06 08:17:00,2021-04-07 14:57:59,2021-04-09 12:15:00,2021-04-09 12:29:00,,-28.666,-59.4266,A13,MOP,Nokia,OA,OA Completado,2021-04-09 12:24:08,,2021-04-07 14:44:39,2021-04-07 15:02:37,2021-04-07 15:03:10,2021-04-09 12:24:08,2021-04-30
24197,A14-S026,Cuatro Bocas,ActivacionLTE1900,Sin Asignar,Sin Asignar,Sin Asignar,WCTRBO,LITO,,ISM-13743,OA,2021-04-06 09:31:59,2021-04-06 09:31:59,2021-04-27 17:57:00,2021-04-28 15:40:00,2021-04-28 15:44:00,,-30.0728,-58.0047,A14,MOP,Nokia,OA,OA Completado,2021-04-30 16:59:40,,2021-04-27 18:29:27,2021-04-27 18:30:01,2021-04-27 18:30:31,2021-04-30 16:59:40,2021-04-30
24216,A03-S165,Sarmiento,ActivacionLTE1900,Sin Asignar,Sin Asignar,Sin Asignar,XSARMI,MEDI,,ISM-6745,OA,2021-04-12 16:50:59,2021-04-12 16:50:59,2021-04-14 15:45:00,2021-04-14 17:14:00,2021-04-19 16:30:00,,-30.7769,-64.1085,A03,MOP,Huawei,OA,OA Completado,2021-04-19 16:20:28,,2021-04-19 15:58:44,2021-04-19 15:59:25,2021-04-19 15:59:53,2021-04-19 16:20:28,2021-04-30
24217,A03-S812,Los Cedros Teco,ActivacionLTE1900,Sin Asignar,Sin Asignar,Sin Asignar,XLCEDT,MEDI,,ISM-6623,OA,2021-04-12 16:54:00,2021-04-12 16:54:00,2021-06-17 13:02:00,2021-06-24 11:21:00,2021-06-25 09:51:59,,-31.5265,-64.2852,A03,MOP,Huawei,OA,OA Completado,2021-06-25 09:43:12,,2021-06-17 12:51:04,2021-06-17 12:52:00,2021-06-17 12:52:27,2021-06-25 09:43:12,2021-09-30
24218,A03-S362,Los Cedros,ActivacionLTE1900,Sin Asignar,Sin Asignar,Sin Asignar,XLCEDR,MEDI,,ISM-6766,OA,2021-08-30 14:33:00,2021-08-30 14:33:00,2021-08-31 20:37:59,2021-09-06 16:39:59,2021-09-22 10:09:59,,-31.5256,-64.276,A03,MOP,Huawei,OA,Finalizado,2021-09-24 00:00:00,,2021-08-31 20:26:33,2021-08-31 20:29:20,2021-09-06 15:42:57,2021-09-24 00:00:00,2021-09-10
24219,A09-S011,ChaÃ±ar,ActivacionLTE1900,Sin Asignar,Sin Asignar,Sin Asignar,FELCHA,MEDI,,ISM-6790,OA,2021-04-16 12:04:59,2021-04-16 12:04:59,2021-04-19 15:18:00,2021-04-19 18:40:00,2021-04-23 15:18:00,,-30.547,-65.9584,A09,MOP,Huawei,OA,OA Completado,2021-04-23 15:06:56,,2021-04-19 15:05:03,2021-04-19 15:07:13,2021-04-19 15:07:34,2021-04-23 15:06:56,2021-04-30
24220,A09-S016,Tama,ActivacionLTE1900,Sin Asignar,Sin Asignar,Sin Asignar,FITAMA,MEDI,,ISM-6792,OA,2021-04-16 12:13:00,2021-04-16 12:13:00,2021-04-23 17:28:00,2021-04-26 11:28:59,2021-04-26 11:46:59,,-30.5094,-66.5308,A09,MOP,Huawei,OA,OA Completado,2021-04-26 11:36:31,,2021-04-23 17:17:14,2021-04-23 17:18:05,2021-04-26 10:14:20,2021-04-26 11:36:31,2021-04-30
24221,A09-S053,Chamical Centro,ActivacionLTE1900,Sin Asignar,Sin Asignar,Sin Asignar,FCHACE,MEDI,,ISM-6802,OA,2021-04-16 12:18:00,2021-04-16 12:18:00,2021-04-26 10:57:00,2021-04-26 11:28:59,2021-04-26 11:44:59,,-30.3604,-66.3139,A09,MOP,Huawei,OA,OA Completado,2021-04-26 11:35:08,,2021-04-26 11:33:01,2021-04-26 11:33:36,2021-04-26 11:34:04,2021-04-26 11:35:08,2021-08-30
24222,A09-S054,Punta De Los Llanos,ActivacionLTE1900,Sin Asignar,Sin Asignar,Sin Asignar,FPULLA,MEDI,,ISM-6803,OA,2021-04-16 12:33:59,2021-04-16 12:33:59,2021-04-20 10:27:00,2021-04-20 12:56:59,2021-04-23 09:24:00,,-30.1558,-66.5431,A09,MOP,Huawei,OA,OA Completado,2021-04-23 09:42:09,,2021-04-20 10:17:17,2021-04-20 10:17:54,2021-04-20 16:48:28,2021-04-23 09:42:09,2021-04-30
24226,A07-S031,Felicia,ActivacionLTE1900,Sin Asignar,Sin Asignar,Sin Asignar,ZFELIC,LITO,,ISM-13768,OA,2021-04-12 14:19:59,2021-04-12 14:19:59,2021-04-12 18:42:00,2021-04-13 13:50:59,2021-04-14 09:20:59,,-31.2466,-61.2089,A07,MOP,Nokia,OA,OA Completado,2021-04-19 09:35:56,,2021-04-19 09:34:18,2021-04-19 09:35:01,2021-04-19 09:35:24,2021-04-19 09:35:56,2021-04-30
24228,A09-S018,Patquia,ActivacionLTE1900,Sin Asignar,Sin Asignar,Sin Asignar,FPATQU,MEDI,,ISM-6793,OA,2021-04-16 12:42:00,2021-04-16 12:42:00,2021-04-20 10:32:00,2021-04-20 12:56:59,2021-04-23 09:24:59,,-30.042,-66.8802,A09,MOP,Huawei,OA,OA Completado,2021-04-23 09:43:32,,2021-04-20 10:20:00,2021-04-20 10:29:21,2021-04-20 16:49:42,2021-04-23 09:43:32,2021-04-30
24229,A07-S072,Progreso,ActivacionLTE1900,Sin Asignar,Sin Asignar,Sin Asignar,ZPROGR,LITO,,ISM-13771,OA,2021-04-14 08:01:59,2021-04-14 08:01:59,2021-04-14 15:56:59,2021-04-14 17:15:59,2021-04-15 10:11:00,,-31.1398,-60.9868,A07,MOP,Nokia,OA,OA Completado,2021-04-15 10:42:04,,2021-04-13 16:09:14,2021-04-13 16:09:59,2021-04-14 15:48:49,2021-04-15 10:42:04,2021-04-30
24282,A07-S039,Videla,ActivacionLTE1900,Sin Asignar,Sin Asignar,Sin Asignar,ZVIDEL,LITO,,ISM-13772,OA,2021-04-20 15:31:59,2021-04-20 15:31:59,2021-04-20 15:31:59,2021-04-20 16:45:00,2021-04-30 08:57:59,,-30.941,-60.6515,A07,MOP,Nokia,OA,OA Completado,2021-04-30 08:48:10,,2021-04-20 15:39:17,2021-04-20 15:40:12,2021-04-20 15:40:40,2021-04-30 08:48:10,2021-04-30
24283,A07-S135,La Pelada,ActivacionLTE1900,Sin Asignar,Sin Asignar,Sin Asignar,ZLPELA,LITO,,ISM-13775,OA,2021-04-23 08:24:59,2021-04-23 08:24:59,2021-04-23 13:12:59,2021-04-23 16:18:59,2021-04-23 16:52:00,,-30.867,-60.9704,A07,MOP,Nokia,OA,OA Completado,2021-04-25 16:39:39,,2021-04-22 10:42:01,2021-04-23 13:06:26,2021-04-23 13:07:00,2021-04-25 16:39:39,2021-04-30
24291,A03-S036,General Paz,ActivacionLTE1900,Sin Asignar,Sin Asignar,Sin Asignar,XGEPAZ,MEDI,,ISM-6720,OA,2021-04-08 08:57:00,2021-04-08 08:57:00,2021-04-26 11:35:59,2021-04-30 09:24:00,2021-04-30 09:27:00,,-31.1418,-64.1431,A03,MOP,Huawei,OA,OA Completado,2021-04-30 09:20:20,,2021-04-26 11:30:26,2021-04-26 11:31:12,2021-04-30 09:19:19,2021-04-30 09:20:20,2021-04-30
24306,A04-S037,Carrizales,ActivacionLTE1900,Sin Asignar,Sin Asignar,Sin Asignar,ZCARRI,LITO,,ISM-13842,OA,2021-04-21 08:55:00,2021-04-21 08:55:00,2021-04-27 09:11:00,2021-04-28 16:56:00,2021-04-28 18:09:00,,-32.5089,-61.0308,A04,MOP,Nokia,OA,OA Completado,2021-04-28 18:00:48,,2021-04-27 09:03:34,2021-04-27 09:04:10,2021-04-27 09:04:46,2021-04-28 18:00:48,2021-06-30
24307,A04-S059,Correa,ActivacionLTE1900,Sin Asignar,Sin Asignar,Sin Asignar,ZCORRE,LITO,,ISM-13843,OA,2021-04-21 08:55:00,2021-04-21 08:55:00,2021-04-27 09:09:00,2021-04-28 17:06:00,2021-04-28 18:09:59,,-32.8493,-61.2486,A04,MOP,Nokia,OA,OA Completado,2021-04-28 18:01:22,,2021-04-27 09:05:33,2021-04-27 09:06:04,2021-04-27 09:06:30,2021-04-28 18:01:22,2021-07-31
24308,A04-S077,Maciel,ActivacionLTE1900,Sin Asignar,Sin Asignar,Sin Asignar,ZMACIE,LITO,,ISM-13844,OA,2021-04-21 08:53:59,2021-04-21 08:53:59,2021-04-27 09:13:00,2021-04-28 17:08:00,2021-04-28 18:11:00,,-32.4547,-60.8905,A04,MOP,Nokia,OA,OA Completado,2021-04-28 18:01:53,,2021-04-27 09:07:12,2021-04-27 09:07:47,2021-04-27 09:08:06,2021-04-28 18:01:53,2021-07-31
24309,A04-S093,Totoras,ActivacionLTE1900,Sin Asignar,Sin Asignar,Sin Asignar,ZTOTOR,LITO,,ISM-13845,OA,2021-04-21 08:53:59,2021-04-21 08:53:59,2021-04-27 19:27:59,2021-04-28 17:24:00,2021-04-30 10:21:59,,-32.5873,-61.1707,A04,MOP,Nokia,OA,OA Completado,2021-04-30 10:11:37,,2021-04-27 19:17:30,2021-04-27 19:18:15,2021-04-27 19:18:39,2021-04-30 10:11:37,2021-07-31
24310,A04-S134,Fuentes,ActivacionLTE1900,Sin Asignar,Sin Asignar,Sin Asignar,ZFUENT,LITO,,ISM-13846,OA,2021-04-21 08:53:59,2021-04-21 08:53:59,2021-04-28 15:36:59,2021-04-28 17:46:00,2021-04-30 10:16:59,,-33.1786,-61.0755,A04,MOP,Nokia,OA,OA Completado,2021-04-30 10:05:10,,2021-04-28 15:27:52,2021-04-28 15:28:36,2021-04-28 15:29:01,2021-04-30 10:05:10,2021-07-31
24311,A04-S185,Pavon Arriba,ActivacionLTE1900,Sin Asignar,Sin Asignar,Sin Asignar,ZPAVAR,LITO,,ISM-13847,OA,2021-04-21 08:53:59,2021-04-21 08:53:59,2021-04-22 23:24:00,2021-04-23 09:56:00,2021-04-27 13:25:00,,-33.302,-60.8402,A04,MOP,Nokia,OA,OA Completado,2021-04-27 13:16:22,,2021-04-21 13:21:41,2021-04-22 23:13:48,2021-04-22 23:14:13,2021-04-27 13:16:22,2021-07-31
24312,A04-S212,Serodino,ActivacionLTE1900,Sin Asignar,Sin Asignar,Sin Asignar,ZSEROD,LITO,,ISM-13848,OA,2021-04-21 08:53:00,2021-04-21 08:53:00,2021-04-27 17:30:59,2021-04-27 18:13:59,2021-04-30 09:42:59,,-32.603,-60.9467,A04,MOP,Nokia,OA,OA Completado,2021-04-30 09:32:16,,2021-04-27 17:18:20,2021-04-27 17:18:52,2021-04-27 17:19:07,2021-04-30 09:32:16,2021-07-31
24313,A04-S275,Puerto Gaboto,ActivacionLTE1900,Sin Asignar,Sin Asignar,Sin Asignar,ZGABOT,LITO,,ISM-13849,OA,2021-04-21 08:53:59,2021-04-21 08:53:59,2021-04-21 12:18:00,2021-04-21 16:41:59,2021-04-27 09:29:59,,-32.4339,-60.8148,A04,MOP,Nokia,OA,OA Completado,2021-04-27 09:21:31,,2021-04-21 12:07:28,2021-04-21 12:08:02,2021-04-21 12:08:20,2021-04-27 09:21:31,2021-07-31
24314,A04-S307,Bustinza,ActivacionLTE1900,Sin Asignar,Sin Asignar,Sin Asignar,ZBUSTI,LITO,,ISM-13850,OA,2021-04-21 08:53:00,2021-04-21 08:53:00,2021-04-27 17:35:00,2021-04-27 18:17:00,2021-04-30 09:47:59,,-32.7384,-61.2855,A04,MOP,Nokia,OA,OA Completado,2021-04-30 09:46:48,,2021-04-27 17:24:59,2021-04-27 17:25:25,2021-04-27 17:25:40,2021-04-30 09:46:48,2021-07-31
24322,A03-S095,Las Peñas,ActivacionLTE1900,Sin Asignar,Sin Asignar,Sin Asignar,XLAPEN,MEDI,,ISM-6737,OA,2021-04-12 16:48:00,2021-04-12 16:48:00,2021-04-14 15:44:00,2021-04-14 17:10:00,2021-04-23 17:26:00,,-30.5691,-64.0011,A03,MOP,Huawei,OA,OA Completado,2021-04-23 17:15:10,,2021-04-23 17:02:21,2021-04-23 17:03:01,2021-04-23 17:03:25,2021-04-23 17:15:10,2021-09-03
24327,A08-S010,Piñeiro,ActivacionLTE1900,Sin Asignar,Sin Asignar,Sin Asignar,EPINEI,LITO,,ISM-13712,OA,2021-10-22 08:55:59,2021-10-22 08:55:59,2021-10-22 09:09:59,2021-11-10 12:54:59,2021-11-10 15:22:59,,-31.8467,-59.5623,A08,MOP,Nokia,OA,OA Completado,2021-10-21 08:14:35,,2021-10-18 20:35:23,2021-10-18 20:36:27,2021-10-18 20:36:47,2021-10-21 08:14:35,2021-10-15
24328,A07-S133,El Solar,ActivacionLTE1900,Sin Asignar,Sin Asignar,Sin Asignar,EESOLA,LITO,,ISM-13738,OA,2021-04-29 14:01:59,2021-04-29 14:01:59,2021-04-29 16:02:00,2021-04-29 17:30:00,2021-04-30 12:29:59,,-31.1755,-59.7325,A07,MOP,Nokia,OA,OA Completado,2021-04-30 12:22:09,,2021-04-29 15:56:54,2021-04-29 15:57:33,2021-04-29 15:58:04,2021-04-30 12:22:09,2021-04-30
24329,A08-S031,Caseros,ActivacionLTE1900,Sin Asignar,Sin Asignar,Sin Asignar,ECASER,LITO,,ISM-13711,OA,2021-04-29 15:29:00,2021-04-29 15:29:00,2021-04-29 16:43:59,2021-04-29 17:28:00,2021-05-06 16:57:59,,-32.4614,-58.4749,A08,MOP,Nokia,OA,OA Completado,2021-05-06 16:50:59,,2021-04-29 16:33:26,2021-04-29 16:34:04,2021-04-30 17:00:09,2021-05-06 16:50:59,2021-04-30
25269,A01-S003,Santa Magdalena,ActivacionLTE1900,Sin Asignar,Sin Asignar,Sin Asignar,XSMAGD,MEDI,,ISM-6563,OA,2021-05-06 15:11:59,2021-05-06 15:11:59,2021-05-06 15:31:00,2021-05-06 16:27:59,2021-05-11 10:50:00,,-34.5175,-63.9456,A01,MOP,Huawei,OA,OA Completado,2021-05-11 10:05:55,,2021-05-06 15:05:30,2021-05-06 15:07:22,2021-05-07 15:42:55,2021-05-11 10:05:55,2021-05-30
25270,A01-S045,Huanchilla,ActivacionLTE1900,Sin Asignar,Sin Asignar,Sin Asignar,XHUANC,MEDI,,ISM-6586,OA,2021-05-06 15:15:00,2021-05-06 15:15:00,2021-05-06 15:33:00,2021-05-06 16:27:00,2021-05-12 09:45:00,,-33.6658,-63.6372,A01,MOP,Huawei,OA,OA Completado,2021-05-11 10:05:32,,2021-05-06 15:04:38,2021-05-06 15:05:15,2021-05-07 15:44:09,2021-05-11 10:05:32,2021-05-30
25271,A01-S067,Melo,ActivacionLTE1900,Sin Asignar,Sin Asignar,Sin Asignar,XRMELO,MEDI,,ISM-6592,OA,2021-05-07 09:58:59,2021-05-07 09:58:59,2021-05-07 17:08:00,2021-05-07 18:58:00,2021-05-14 16:43:59,,-34.3494,-63.4486,A01,MOP,Huawei,OA,OA Completado,2021-05-14 16:32:04,,2021-05-06 16:40:23,2021-05-06 16:46:30,2021-05-07 16:59:50,2021-05-14 16:32:04,2021-05-30
25272,A01-S076,Italo,ActivacionLTE1900,Sin Asignar,Sin Asignar,Sin Asignar,XITALO,MEDI,,ISM-6597,OA,2021-05-07 10:03:00,2021-05-07 10:03:00,2021-05-07 17:08:59,2021-05-14 16:07:59,2021-05-17 07:57:59,,-34.7926,-63.7829,A01,MOP,Huawei,OA,OA Completado,2021-05-14 11:16:34,,2021-05-06 16:47:04,2021-05-06 16:48:01,2021-05-07 17:00:24,2021-05-14 11:16:34,2021-05-30
25273,A01-S085,Estacion Salas Mudanza,ActivacionLTE1900,Sin Asignar,Sin Asignar,Sin Asignar,XSALAS,MEDI,,ISM-6601,OA,2021-05-07 09:36:59,2021-05-07 09:36:59,2021-05-07 10:30:59,2021-05-07 14:35:59,2021-05-07 16:27:00,,-34.2052,-63.0758,A01,MOP,Huawei,OA,OA Completado,2021-05-07 16:20:43,,2021-05-07 16:19:12,2021-05-07 16:19:44,2021-05-07 16:20:05,2021-05-07 16:20:43,2021-08-31
25274,A03-S348,Villa Parque Los Reartes,ActivacionLTE1900,Sin Asignar,Sin Asignar,Sin Asignar,XREART,MEDI,,ISM-6837,OA,2021-05-07 09:42:59,2021-05-07 09:42:59,2021-05-07 10:27:59,2021-05-07 15:00:00,2021-05-07 16:27:59,,-31.9147,-64.5235,A03,MOP,Huawei,OA,OA Completado,2021-05-07 16:23:38,,2021-05-07 16:21:13,2021-05-07 16:21:50,2021-05-07 16:22:33,2021-05-07 16:23:38,2021-05-30
25275,A09-S014,Villa Castelli,ActivacionLTE1900,Sin Asignar,Sin Asignar,Sin Asignar,FVCAST,MEDI,,ISM-4950,OA,2021-05-07 09:47:00,2021-05-07 09:47:00,2021-05-07 10:32:00,2021-05-07 14:42:59,2021-05-07 16:29:00,,-29.0146,-68.2262,A09,MOP,Huawei,OA,OA Completado,2021-05-07 16:26:09,,2021-05-07 16:24:46,2021-05-07 16:25:16,2021-05-07 16:25:40,2021-05-07 16:26:09,2021-05-30
25276,A09-S036,Anillaco,ActivacionLTE1900,Sin Asignar,Sin Asignar,Sin Asignar,FANILL,MEDI,,ISM-4912,OA,2021-05-07 09:49:59,2021-05-07 09:49:59,2021-05-07 10:34:00,2021-05-07 14:39:59,2021-05-07 16:29:00,,-28.8056,-66.9556,A09,MOP,Huawei,OA,OA Completado,2021-05-07 16:28:18,,2021-05-07 16:26:55,2021-05-07 16:27:31,2021-05-07 16:27:52,2021-05-07 16:28:18,2021-05-30
25277,A09-S039,La Piragua,ActivacionLTE1900,Sin Asignar,Sin Asignar,Sin Asignar,FLAPIR,MEDI,,ISM-6800,OA,2021-05-07 09:54:00,2021-05-07 09:54:00,2021-05-07 10:36:59,2021-05-07 14:39:00,2021-05-07 16:30:00,,-28.2879,-67.0117,A09,MOP,Huawei,OA,OA Completado,2021-05-07 16:30:22,,2021-05-07 16:28:51,2021-05-07 16:29:24,2021-05-07 16:29:44,2021-05-07 16:30:22,2021-05-30
25278,A09-S065,Loma Blanca,ActivacionLTE1900,Sin Asignar,Sin Asignar,Sin Asignar,FLBLAN,MEDI,,ISM-6806,OA,2021-05-13 10:07:00,2021-05-13 10:07:00,2021-05-13 10:38:00,2021-05-13 16:59:00,2021-05-17 08:17:59,,-30.6406,-66.2418,A09,MOP,Huawei,OA,OA Completado,2021-05-17 07:50:21,,2021-05-06 11:00:24,2021-05-06 14:18:16,2021-05-13 10:51:23,2021-05-17 07:50:21,2021-05-30
25279,A09-S080,Talamuyuna,ActivacionLTE1900,Sin Asignar,Sin Asignar,Sin Asignar,FTALAM,MEDI,,ISM-6807,OA,2021-05-13 10:03:59,2021-05-13 10:03:59,2021-05-13 10:38:00,2021-05-13 16:56:00,2021-05-17 08:17:59,,-29.7214,-66.8584,A09,MOP,Huawei,OA,OA Completado,2021-05-17 07:47:36,,2021-05-10 10:04:52,2021-05-13 10:50:00,2021-05-13 10:50:27,2021-05-17 07:47:36,2021-05-30
25284,A08-S051,Pronunciamiento,ActivacionLTE1900,Sin Asignar,Sin Asignar,Sin Asignar,EPRONU,LITO,,ISM-13716,OA,2021-05-04 11:15:59,2021-05-04 11:15:59,2021-05-04 18:22:59,2021-05-05 14:35:59,2021-05-10 09:54:00,,-32.3442,-58.4414,A08,MOP,Nokia,OA,OA Completado,2021-05-10 09:44:22,,2021-05-04 18:23:44,2021-05-04 18:24:21,2021-05-04 18:24:59,2021-05-10 09:44:22,2021-05-30
25297,A14-S023,Bompland,ActivacionLTE1900,Sin Asignar,Sin Asignar,Sin Asignar,WBMPLN,LITO,,ISM-13724,OA,2021-05-07 08:37:59,2021-05-07 08:37:59,2021-05-07 10:12:00,2021-05-07 14:33:59,2021-05-13 17:01:59,,-29.8195,-57.4296,A14,MOP,Nokia,OA,OA Completado,2021-05-14 12:52:07,,2021-05-06 17:02:03,2021-05-07 10:12:34,2021-05-07 10:13:54,2021-05-14 12:52:07,2021-05-30
25298,A08-S001,Jubileo,ActivacionLTE1900,Sin Asignar,Sin Asignar,Sin Asignar,EJUBIL,LITO,,ISM-13750,OA,2021-05-06 15:36:00,2021-05-06 15:36:00,2021-05-06 17:33:59,2021-05-07 14:26:00,2021-05-10 09:51:59,,-31.7295,-58.6372,A08,MOP,Nokia,OA,OA Completado,2021-05-10 09:43:17,,2021-05-06 17:23:34,2021-05-06 17:26:20,2021-05-06 17:26:42,2021-05-10 09:43:17,2021-05-30
25304,A03-S166,Villa Allende Golf,ActivacionLTE1900,Sin Asignar,Sin Asignar,Sin Asignar,XVALLG,MEDI,,ISM-5277,OA,2021-05-11 10:41:00,2021-05-11 10:41:00,2021-05-11 10:43:00,2021-05-11 13:07:00,2021-05-11 13:09:00,,-31.2777,-64.2839,A03,MOP,Huawei,OA,OA Completado,2021-05-11 13:04:01,,2021-05-11 12:57:43,2021-05-11 13:00:32,2021-05-11 13:02:56,2021-05-11 13:04:01,2021-09-30
25310,A17-S020,Paso De La Patria,ActivacionLTE1900,Sin Asignar,Sin Asignar,Sin Asignar,WPPTRA,LITO,,ISM-14506,OA,2021-05-12 16:57:59,2021-05-12 16:57:59,2021-05-12 17:10:00,2021-05-12 17:55:00,2021-05-13 16:07:59,,-27.3179,-58.5782,A17,MOP,Nokia,OA,OA Completado,2021-05-13 15:57:04,,2021-05-12 16:59:48,2021-05-12 17:00:42,2021-05-12 17:01:04,2021-05-13 15:57:04,
25311,A10-S023,Bañado De Ovanta,ActivacionLTE1900,Sin Asignar,Sin Asignar,Sin Asignar,KOVANT,MEDI,,ISM-6860,OA,2021-05-13 08:23:00,2021-05-13 08:23:00,2021-05-14 10:14:00,2021-05-14 11:17:59,2021-05-14 12:15:59,,-28.1064,-65.3183,A10,MOP,Huawei,OA,OA Completado,2021-05-14 12:27:24,,2021-05-14 12:22:40,2021-05-14 12:23:12,2021-05-14 12:23:41,2021-05-14 12:27:24,2021-05-30
25313,A01-S002,Hipolito Bouchardo,ActivacionLTE1900,Sin Asignar,Sin Asignar,Sin Asignar,XHBOUC,MEDI,,ISM-6562,OA,2021-05-14 11:19:59,2021-05-14 11:19:59,2021-05-17 16:12:00,2021-05-17 17:53:00,2021-05-19 10:05:59,,-34.7228,-63.5056,A01,MOP,Huawei,OA,OA Completado,2021-05-19 09:55:48,,2021-05-14 11:00:07,2021-05-14 11:00:47,2021-05-19 09:55:12,2021-05-19 09:55:48,2021-05-30
25314,A01-S049,La Cautiva,ActivacionLTE1900,Sin Asignar,Sin Asignar,Sin Asignar,XLCAUT,MEDI,,ISM-6587,OA,2021-05-14 11:21:59,2021-05-14 11:21:59,2021-05-17 16:12:59,2021-05-17 17:53:59,2021-05-19 12:11:59,,-33.9786,-64.0797,A01,MOP,Huawei,OA,OA Completado,2021-05-19 12:01:14,,2021-05-14 11:08:28,2021-05-14 11:09:04,2021-05-19 12:00:35,2021-05-19 12:01:14,2021-08-31
25315,A01-S072,Rio Bamba,ActivacionLTE1900,Sin Asignar,Sin Asignar,Sin Asignar,XRBAMB,MEDI,,ISM-6596,OA,2021-05-14 11:24:00,2021-05-14 11:24:00,2021-05-17 16:32:59,2021-05-17 18:00:59,2021-05-27 10:52:59,,-34.0512,-63.7347,A01,MOP,Huawei,OA,OA Completado,2021-05-27 10:42:28,,2021-05-14 11:12:31,2021-05-14 11:13:04,2021-05-27 10:41:59,2021-05-27 10:42:28,2021-05-30
25316,A01-S106,San Joaquin,ActivacionLTE1900,Sin Asignar,Sin Asignar,Sin Asignar,XSANJO,MEDI,,ISM-6609,OA,2021-05-14 11:26:00,2021-05-14 11:26:00,2021-05-17 16:32:00,2021-05-17 17:55:59,2021-05-19 10:09:00,,-34.5127,-63.7088,A01,MOP,Huawei,OA,OA Completado,2021-05-19 09:58:17,,2021-05-14 11:15:09,2021-05-14 11:15:45,2021-05-19 09:57:49,2021-05-19 09:58:17,2021-05-30
25317,A10-S015,San Antonio De La Paz,ActivacionLTE1900,Sin Asignar,Sin Asignar,Sin Asignar,KANTON,MEDI,,ISM-6858,OA,2021-05-17 16:50:00,2021-05-17 16:50:00,2021-05-19 10:11:00,2021-05-19 10:27:59,2021-05-26 10:18:59,,-28.931,-65.1024,A10,MOP,Huawei,OA,OA Completado,2021-05-26 10:07:33,,2021-05-14 11:18:42,2021-05-14 11:19:18,2021-05-19 10:00:44,2021-05-26 10:07:33,2021-05-30
25318,A02-S043,Cavanagh,ActivacionLTE1900,Sin Asignar,Sin Asignar,Sin Asignar,XICAVA,MEDI,,ISM-6650,OA,2021-05-14 11:28:59,2021-05-14 11:28:59,2021-05-17 16:41:59,2021-05-17 18:04:59,2021-05-19 10:23:59,,-33.4764,-62.3422,A02,MOP,Huawei,OA,OA Completado,2021-05-19 10:14:08,,2021-05-14 11:21:12,2021-05-14 11:21:44,2021-05-19 10:13:40,2021-05-19 10:14:08,2021-05-30
25319,A02-S087,Guatimozin,ActivacionLTE1900,Sin Asignar,Sin Asignar,Sin Asignar,XGUATI,MEDI,,ISM-6669,OA,2021-05-14 11:42:00,2021-05-14 11:42:00,2021-05-17 16:43:59,2021-05-19 19:00:00,2021-05-27 18:38:59,,-33.46,-62.4338,A02,MOP,Huawei,OA,OA Completado,2021-05-27 18:27:03,,2021-05-14 11:23:29,2021-05-14 11:26:45,2021-05-19 12:21:59,2021-05-27 18:27:03,2021-05-30
25320,A02-S136,Camilo Aldao Central,ActivacionLTE1900,Sin Asignar,Sin Asignar,Sin Asignar,XALDAC,MEDI,,ISM-6682,OA,2021-05-14 11:44:00,2021-05-14 11:44:00,2021-05-17 16:45:59,2021-05-19 18:45:59,2021-05-26 10:30:59,,-33.1275,-62.094,A02,MOP,Huawei,OA,OA Completado,2021-05-26 10:19:01,,2021-05-14 11:28:59,2021-05-14 11:29:38,2021-05-19 12:22:49,2021-05-26 10:19:01,2021-05-30
25321,A02-S140,Cavanagh Central,ActivacionLTE1900,Sin Asignar,Sin Asignar,Sin Asignar,XCAVCE,MEDI,,ISM-6684,OA,2021-05-14 11:46:00,2021-05-14 11:46:00,2021-05-17 16:47:00,2021-05-17 18:15:00,2021-05-19 10:27:00,,-33.4767,-62.3356,A02,MOP,Huawei,OA,OA Completado,2021-05-19 10:16:25,,2021-05-14 11:31:29,2021-05-14 11:32:07,2021-05-19 10:15:57,2021-05-19 10:16:25,2021-05-30
25322,A02-S161,Arteaga Claro,ActivacionLTE1900,Sin Asignar,Sin Asignar,Sin Asignar,XARTCL,MEDI,,ISM-6686,OA,2021-05-14 11:48:00,2021-05-14 11:48:00,2021-05-17 16:54:59,2021-05-17 18:15:59,2021-05-19 12:24:59,,-33.0926,-61.7858,A02,MOP,Huawei,OA,OA Completado,2021-05-26 10:04:06,,2021-05-14 11:33:48,2021-05-14 11:34:19,2021-05-19 12:20:28,2021-05-26 10:04:06,2021-05-30
25323,A03-S072,Villa Ascasubi,ActivacionLTE1900,Sin Asignar,Sin Asignar,Sin Asignar,XVASCA,MEDI,,ISM-6729,OA,2021-05-14 11:55:59,2021-05-14 11:55:59,2021-05-17 16:57:00,2021-05-17 18:17:00,2021-05-19 11:15:59,,-32.1606,-63.8967,A03,MOP,Huawei,OA,OA Completado,2021-05-19 11:04:51,,2021-05-14 11:36:21,2021-05-14 11:36:54,2021-05-19 11:03:29,2021-05-19 11:04:51,2021-05-30
25324,A03-S472,Vill Amancay,ActivacionLTE1900,Sin Asignar,Sin Asignar,Sin Asignar,XVAMAN,MEDI,,ISM-6779,OA,2021-05-18 08:19:00,2021-05-18 08:19:00,2021-05-19 11:17:59,2021-05-19 12:04:59,2021-05-26 10:21:00,,-32.1857,-64.5676,A03,MOP,Huawei,OA,OA Completado,2021-05-26 10:09:26,,2021-05-14 11:39:09,2021-05-14 11:39:49,2021-05-19 11:05:50,2021-05-26 10:09:26,2021-05-30
25325,A09-S038,Estacion Mazan,ActivacionLTE1900,Sin Asignar,Sin Asignar,Sin Asignar,FMAZAN,MEDI,,ISM-6799,OA,2021-05-19 11:42:00,2021-05-19 11:42:00,2021-05-19 15:06:00,2021-05-26 15:38:00,2021-05-26 16:07:59,,-28.6762,-66.4942,A09,MOP,Huawei,OA,OA Completado,2021-05-26 15:56:22,,2021-05-14 11:41:28,2021-05-14 11:41:55,2021-05-19 11:09:32,2021-05-26 15:56:22,2021-05-30
25326,A09-S059,Pagancillo,ActivacionLTE1900,Sin Asignar,Sin Asignar,Sin Asignar,FPAGAN,MEDI,,ISM-4947,OA,2021-05-14 12:00:00,2021-05-14 12:00:00,2021-05-17 17:03:59,2021-05-17 18:18:59,2021-05-26 10:25:00,,-29.5386,-68.0925,A09,MOP,Huawei,OA,OA Completado,2021-05-26 10:13:37,,2021-05-14 11:44:02,2021-05-14 11:44:34,2021-05-19 14:50:32,2021-05-26 10:13:37,2021-05-30
25327,A09-S063,Pituil,ActivacionLTE1900,Sin Asignar,Sin Asignar,Sin Asignar,FPITUI,MEDI,,ISM-6805,OA,2021-05-19 11:44:59,2021-05-19 11:44:59,2021-05-26 10:25:59,2021-05-26 12:49:59,2021-05-26 15:15:59,,-28.5696,-67.4498,A09,MOP,Huawei,OA,OA Completado,2021-05-26 15:07:30,,2021-05-14 11:46:48,2021-05-14 11:59:41,2021-05-19 11:12:43,2021-05-26 15:07:30,2021-05-30
25329,A04-S133,Amenabar,ActivacionLTE1900,Sin Asignar,Sin Asignar,Sin Asignar,ZAMENA,LITO,,ISM-13718,OA,2021-05-07 10:12:59,2021-05-07 10:12:59,2021-05-12 15:33:00,2021-05-12 16:25:00,2021-05-27 17:08:59,,-34.1344,-62.4202,A04,MOP,Nokia,OA,OA Completado,2021-05-27 17:01:22,,2021-05-14 09:00:23,2021-05-14 09:01:02,2021-05-14 09:01:23,2021-05-27 17:01:22,2021-05-30
25330,A03-S065,Villa Allende,ActivacionLTE1900,Sin Asignar,Sin Asignar,Sin Asignar,XVALLE,MEDI,,ISM-5276,OA,2021-05-14 15:22:59,2021-05-14 15:22:59,2021-05-14 15:27:59,2021-05-14 16:18:00,2021-05-31 10:54:59,,-31.2938,-64.2963,A03,MOP,Huawei,OA,OA Completado,2021-05-31 10:43:34,,2021-05-31 10:41:05,2021-05-31 10:42:06,2021-05-31 10:42:25,2021-05-31 10:43:34,2021-09-30
25341,A18-S020,Panambi Km15,ActivacionLTE1900,Sin Asignar,Sin Asignar,Sin Asignar,IPANKM,LITO,,ISM-13987,OA,2021-05-12 14:14:00,2021-05-12 14:14:00,2021-05-12 15:35:00,2021-05-12 16:27:00,2021-05-14 14:57:00,,-27.709,-54.9677,A18,MOP,Nokia,OA,OA Completado,2021-05-14 16:43:39,,2021-05-14 14:31:46,2021-05-14 14:33:14,2021-05-14 16:42:36,2021-05-14 16:43:39,2021-05-30
25344,A08-S036,Villa Clara,ActivacionLTE1900,Sin Asignar,Sin Asignar,Sin Asignar,EVCLAR,LITO,,ISM-13749,OA,2021-05-13 14:21:00,2021-05-13 14:21:00,2021-05-13 15:42:00,2021-05-13 17:01:00,2021-05-18 00:11:00,,-31.8289,-58.8219,A08,MOP,Nokia,OA,OA Completado,2021-05-18 00:01:53,,2021-05-13 15:31:58,2021-05-13 15:33:22,2021-05-13 15:33:52,2021-05-18 00:01:53,2021-05-30
25345,A22-S047,Juan G. Bazan,ActivacionLTE1900,Sin Asignar,Sin Asignar,Sin Asignar,PBAZAN,LITO,,ISM-14427,OA,2021-05-26 15:02:59,2021-05-26 15:02:59,2021-05-26 18:58:00,2021-05-27 10:23:59,2021-06-08 16:45:59,,-24.5408,-60.8333,A22,MOP,Nokia,OA,OA Completado,2021-06-08 16:36:00,,2021-05-26 18:51:11,2021-05-26 18:53:37,2021-05-26 18:53:57,2021-06-08 16:36:00,2021-05-30
25354,A09-S029,Villa San Jose De Vinchina,ActivacionLTE1900,Sin Asignar,Sin Asignar,Sin Asignar,FVINCH,MEDI,,ISM-4951,OA,2021-06-30 11:39:59,2021-06-30 11:39:59,2021-06-30 12:04:59,2021-06-30 13:32:00,2021-07-13 16:54:00,,-28.7532,-68.204,A09,MOP,Huawei,OA,OA Completado,2021-07-13 16:42:27,,2021-06-25 13:01:26,2021-06-30 11:57:43,2021-06-30 11:58:50,2021-07-13 16:42:27,2021-06-30
25355,A14-S018,Mariano I. Loza,ActivacionLTE1900,Sin Asignar,Sin Asignar,Sin Asignar,WMILZA,LITO,,ISM-12351,OA,2021-03-16 11:08:00,2021-03-16 11:08:00,2021-05-14 17:15:00,2021-05-17 16:30:00,2021-05-27 17:15:00,,-29.4331,-58.1992,A14,MOP,Nokia,OA,OA Completado,2021-05-27 17:07:32,,2021-05-18 14:34:34,2021-05-18 14:35:14,2021-05-18 14:35:37,2021-05-27 17:07:32,2021-05-30
25360,A04-S002,Colonia Casa,ActivacionLTE1900,Sin Asignar,Sin Asignar,Sin Asignar,BCCASA,LITO,,ISM-13719,OA,2021-04-29 12:22:59,2021-04-29 12:22:59,2021-05-18 14:03:00,2021-05-18 16:59:59,2021-05-28 18:27:59,,-34.4182,-62.9572,A04,MOP,Nokia,OA,OA Completado,2021-05-28 18:17:13,,2021-05-18 15:09:34,2021-05-18 15:10:24,2021-05-18 15:10:48,2021-05-28 18:17:13,2021-05-30
25361,A14-S022,Juan Pujol,ActivacionLTE1900,Sin Asignar,Sin Asignar,Sin Asignar,WJNPJL,LITO,,ISM-13735,OA,2021-05-20 15:38:00,2021-05-20 15:38:00,2021-05-21 16:34:00,2021-05-21 18:18:00,2021-05-26 16:14:00,,-30.3873,-57.8776,A14,MOP,Nokia,OA,OA Completado,2021-05-21 16:57:55,,2021-05-18 17:57:49,2021-05-21 16:55:11,2021-05-21 16:56:01,2021-05-21 16:57:55,2021-05-30
25362,A18-S081,Panambi Km8,ActivacionLTE1900,Sin Asignar,Sin Asignar,Sin Asignar,IPNBKO,LITO,,ISM-14414,OA,2021-05-19 15:00:00,2021-05-19 15:00:00,2021-05-21 17:12:00,2021-05-21 18:33:00,2021-05-26 16:05:59,,-27.6722,-54.9775,A18,MOP,Nokia,OA,OA Completado,2021-05-26 15:57:40,,2021-05-26 15:55:47,2021-05-26 15:56:20,2021-05-26 15:56:38,2021-05-26 15:57:40,2021-05-30
25363,A18-S062,Corpus,ActivacionLTE1900,Sin Asignar,Sin Asignar,Sin Asignar,ICRPUS,LITO,,ISM-14426,OA,2021-05-19 11:23:00,2021-05-19 11:23:00,2021-05-20 10:03:59,2021-05-27 10:25:59,2021-05-27 17:15:59,,-27.1239,-55.5087,A18,MOP,Nokia,OA,OA Completado,2021-05-27 17:10:26,,2021-05-20 10:59:31,2021-05-27 17:09:35,2021-05-27 17:09:54,2021-05-27 17:10:26,2021-05-30
25364,A08-S059,Juan Jorge,ActivacionLTE1900,Sin Asignar,Sin Asignar,Sin Asignar,EJJORG,LITO,,ISM-13745,OA,2021-05-19 12:35:00,2021-05-19 12:35:00,2021-05-19 15:22:59,2021-05-19 19:02:00,2021-05-28 13:21:00,,-32.0009,-58.2929,A08,MOP,Nokia,OA,OA Completado,2021-05-28 13:09:56,,2021-05-19 15:19:44,2021-05-19 15:20:43,2021-05-19 15:21:07,2021-05-28 13:09:56,2021-05-30
25365,A05-S019,Gualeguaychu Repetidora,ActivacionLTE1900,Sin Asignar,Sin Asignar,Sin Asignar,EGYREP,LITO,,ISM-14590,OA,2021-05-20 13:45:00,2021-05-20 13:45:00,2021-05-20 14:08:59,2021-05-20 19:05:00,2021-06-03 17:03:59,,-33.0129,-58.5828,A05,MOP,Nokia,OA,OA Completado,2021-06-03 16:54:07,,2021-05-20 11:03:44,2021-05-20 11:04:21,2021-05-20 14:00:39,2021-06-03 16:54:07,2021-05-30
25379,A07-S134,La Brava,ActivacionLTE1900,Sin Asignar,Sin Asignar,Sin Asignar,ZLBRAV,LITO,,ISM-13776,OA,2021-05-26 09:36:00,2021-05-26 09:36:00,2021-05-26 17:46:00,2021-05-27 10:18:59,2021-06-01 22:07:00,,-30.4471,-60.1362,A07,MOP,Nokia,OA,OA Completado,2021-06-01 21:55:47,,2021-05-26 17:43:25,2021-05-26 17:44:12,2021-05-26 17:44:42,2021-06-01 21:55:47,2021-05-30
25381,A18-S023,San Martin,ActivacionLTE1900,Sin Asignar,Sin Asignar,Sin Asignar,ISMRTN,LITO,,ISM-13988,OA,2021-05-26 09:26:00,2021-05-26 09:26:00,2021-05-26 15:56:59,2021-05-27 10:18:00,2021-05-28 16:56:00,,-27.4684,-55.2723,A18,MOP,Nokia,OA,OA Completado,2021-05-28 16:37:47,,2021-05-27 17:01:09,2021-05-27 17:01:59,2021-05-27 17:03:29,2021-05-28 16:37:47,2021-05-30
25382,A06-S109,Miramar Mudanza,ActivacionLTE1900,Sin Asignar,Sin Asignar,Sin Asignar,XMIRAM,MEDI,,ISM-14604,OA,2021-05-27 10:54:00,2021-05-27 10:54:00,2021-05-27 14:35:59,2021-05-31 10:16:59,2021-05-31 10:18:59,,-30.9144,-62.6618,A06,MOP,Huawei,OA,OA Completado,2021-05-31 10:11:23,,2021-05-27 15:09:32,2021-05-27 15:10:16,2021-05-31 10:10:51,2021-05-31 10:11:23,2021-05-30
25384,A04-S245,La Cesira,ActivacionLTE1900,Sin Asignar,Sin Asignar,Sin Asignar,XLCESI,LITO,,ISM-13723,OA,2021-04-27 08:46:59,2021-04-27 08:46:59,2021-05-27 16:12:00,2021-05-27 17:15:59,2021-06-08 09:18:00,,-33.949,-62.9736,A04,MOP,Nokia,OA,OA Completado,2021-06-08 09:06:44,,2021-05-27 15:58:33,2021-05-27 16:01:47,2021-05-27 16:03:18,2021-06-08 09:06:44,2021-05-30
25386,A04-S188,Sargento Cabral,ActivacionLTE1900,Sin Asignar,Sin Asignar,Sin Asignar,ZSCABR,LITO,,ISM-14617,OA,2021-05-31 10:45:59,2021-05-31 10:45:59,2021-05-31 10:57:59,2021-06-01 10:07:59,2021-06-11 12:38:59,,-33.4351,-60.6304,A04,MOP,Nokia,OA,OA Completado,2021-06-11 12:28:09,,2021-05-31 10:48:28,2021-05-31 10:49:12,2021-05-31 10:49:32,2021-06-11 12:28:09,2021-07-31
25387,A18-S016,Hipolito Yrigoyen,ActivacionLTE1900,Sin Asignar,Sin Asignar,Sin Asignar,IHIRGY,LITO,,ISM-14424,OA,2021-05-26 09:20:59,2021-05-26 09:20:59,2021-05-27 17:19:00,2021-06-01 10:34:59,2021-06-03 12:06:00,,-27.0854,-55.2874,A18,MOP,Nokia,OA,OA Completado,2021-06-03 11:56:21,,2021-05-28 11:04:40,2021-05-28 11:05:11,2021-05-31 13:34:09,2021-06-03 11:56:21,2021-05-30
25475,A02-S084,Luca,ActivacionLTE1900,Sin Asignar,Sin Asignar,Sin Asignar,XILUCA,MEDI,,ISM-6668,OA,2021-08-25 16:39:59,2021-08-25 16:39:59,2021-08-28 16:12:59,2021-08-30 18:00:00,2021-09-22 10:16:59,,-32.5414,-63.4788,A02,MOP,Huawei,OA,Finalizado,2021-09-24 00:00:00,,2021-08-28 15:56:59,2021-08-28 15:57:29,2021-08-30 16:16:07,2021-09-24 00:00:00,2021-08-31
25485,A03-S066,La Puerta,ActivacionLTE1900,Sin Asignar,Sin Asignar,Sin Asignar,XLAPUE,MEDI,,ISM-5350,OA,2021-06-04 11:19:00,2021-06-04 11:19:00,2021-06-04 17:19:00,2021-06-04 17:26:59,2021-06-14 10:32:59,,-30.8902,-63.2532,A03,MOP,Huawei,OA,OA Completado,2021-06-14 10:21:40,,2021-06-03 13:00:31,2021-06-03 13:01:39,2021-06-04 08:21:27,2021-06-14 10:21:40,2021-06-30
25694,A02-S063,Laborde,ActivacionLTE1900,Sin Asignar,Sin Asignar,Sin Asignar,XLABOR,MEDI,,ISM-6659,OA,2021-06-01 15:42:00,2021-06-01 15:42:00,2021-06-01 17:24:59,2021-06-02 10:12:59,2021-06-14 10:00:00,,-33.1396,-62.8565,A02,MOP,Huawei,OA,OA Completado,2021-06-14 09:46:54,,2021-06-01 18:20:38,2021-06-01 18:21:18,2021-06-04 08:30:25,2021-06-14 09:46:54,2021-06-30
25695,A03-S020,Obispo Trejo,ActivacionLTE1900,Sin Asignar,Sin Asignar,Sin Asignar,XOTREJ,MEDI,,ISM-6714,OA,2021-04-08 10:14:59,2021-04-08 10:14:59,2021-06-02 10:00:00,2021-06-04 17:26:59,2021-06-14 10:02:00,,-30.785,-63.4154,A03,MOP,Huawei,OA,OA Completado,2021-06-14 10:00:07,,2021-06-02 10:28:53,2021-06-02 10:30:12,2021-06-04 08:25:46,2021-06-14 10:00:07,2021-06-30
25717,A01-S028,Elena,ActivacionLTE1900,Sin Asignar,Sin Asignar,Sin Asignar,XELENA,MEDI,,ISM-6577,OA,2021-06-14 10:39:00,2021-06-14 10:39:00,2021-06-14 13:50:00,2021-06-15 13:59:00,2021-07-05 11:48:59,,-32.5715,-64.3944,A01,MOP,Huawei,OA,OA Completado,2021-07-05 11:35:20,,2021-06-14 09:30:20,2021-06-14 09:31:14,2021-06-15 07:34:52,2021-07-05 11:35:20,2021-08-31
25718,A01-S128,Elena Nextel,ActivacionLTE1900,Sin Asignar,Sin Asignar,Sin Asignar,XELENX,MEDI,,ISM-6607,OA,2021-06-14 10:45:00,2021-06-14 10:45:00,2021-06-14 13:50:00,2021-06-15 16:59:59,2021-07-05 11:48:59,,-32.6192,-64.3821,A01,MOP,Huawei,OA,OA Completado,2021-07-05 11:37:25,,2021-06-14 09:31:33,2021-06-14 09:32:27,2021-06-15 07:35:34,2021-07-05 11:37:25,2021-08-31
25903,A01-S004,Carnerillo,ActivacionLTE1900,Sin Asignar,Sin Asignar,Sin Asignar,XICARN,MEDI,,ISM-6564,OA,2021-08-24 09:54:00,2021-08-24 09:54:00,2021-08-27 14:51:00,2021-08-31 18:29:00,2021-09-01 09:44:00,,-32.9142,-64.0274,A01,MOP,Huawei,OA,OA Completado,2021-09-01 09:34:18,,2021-08-27 14:34:16,2021-08-27 14:35:03,2021-09-01 09:33:01,2021-09-01 09:34:18,2021-08-31
25904,A01-S006,La Carlota,ActivacionLTE1900,Sin Asignar,Sin Asignar,Sin Asignar,XLCARL,MEDI,,ISM-6285,OA,2021-07-29 11:01:59,2021-07-29 11:01:59,2021-08-02 15:35:00,2021-08-02 17:55:59,2021-08-02 21:18:00,,-33.418,-63.2961,A01,MOP,Huawei,OA,OA Completado,2021-08-02 21:07:29,,2021-08-02 21:05:51,2021-08-02 21:06:28,2021-08-02 21:06:53,2021-08-02 21:07:29,2021-08-30
25905,A01-S012,Achiras,ActivacionLTE1900,Sin Asignar,Sin Asignar,Sin Asignar,XACHIR,MEDI,,ISM-6570,OA,2021-08-24 09:22:59,2021-08-24 09:22:59,2021-08-25 14:01:59,2021-08-31 13:32:00,2021-09-03 15:33:00,,-33.1817,-64.9992,A01,MOP,Huawei,OA,OA Completado,2021-09-03 15:24:53,,2021-08-21 16:47:26,2021-08-21 16:48:30,2021-08-26 11:15:36,2021-09-03 15:24:53,2021-08-31
25906,A01-S029,Coronel Baigorria,ActivacionLTE1900,Sin Asignar,Sin Asignar,Sin Asignar,XBAIGO,MEDI,,ISM-6578,OA,2021-08-24 10:14:59,2021-08-24 10:14:59,2021-08-27 15:06:59,2021-09-01 16:38:00,2021-09-01 16:48:59,,-32.8388,-64.3655,A01,MOP,Huawei,OA,OA Completado,2021-09-01 16:38:57,,2021-08-27 14:51:09,2021-08-27 14:51:52,2021-09-01 16:37:21,2021-09-01 16:38:57,2021-08-31
25907,A01-S030,Las Vertientes,ActivacionLTE1900,Sin Asignar,Sin Asignar,Sin Asignar,XVERTI,MEDI,,ISM-6579,OA,2021-08-24 14:21:00,2021-08-24 14:21:00,2021-08-27 15:45:00,2021-08-31 13:32:00,2021-09-03 15:33:00,,-33.2825,-64.5775,A01,MOP,Huawei,OA,OA Completado,2021-09-03 15:27:18,,2021-08-27 15:36:02,2021-08-27 15:37:31,2021-08-27 18:33:19,2021-09-03 15:27:18,2021-08-31
25908,A01-S031,Charra,ActivacionLTE1900,Sin Asignar,Sin Asignar,Sin Asignar,XICHAR,MEDI,,ISM-6580,OA,2021-06-30 11:24:59,2021-06-30 11:24:59,2021-06-30 12:04:59,2021-06-30 13:09:00,2021-07-02 13:41:59,,-33.0264,-64.0472,A01,MOP,Huawei,OA,OA Completado,2021-07-02 13:31:29,,2021-06-25 13:01:34,2021-06-30 11:57:51,2021-06-30 11:59:10,2021-07-02 13:31:29,2021-06-30
25909,A01-S032,San Severo,ActivacionLTE1900,Sin Asignar,Sin Asignar,Sin Asignar,XSEVER,MEDI,,ISM-6581,OA,2021-08-09 16:48:00,2021-08-09 16:48:00,2021-08-09 17:30:00,2021-08-10 18:15:59,2021-08-10 22:41:00,,-33.4933,-63.0585,A01,MOP,Huawei,OA,OA Completado,2021-08-10 22:33:21,,2021-08-10 22:31:28,2021-08-10 22:32:13,2021-08-10 22:32:46,2021-08-10 22:33:21,2021-08-31
25910,A01-S033,Villa Valeria,ActivacionLTE1900,Sin Asignar,Sin Asignar,Sin Asignar,XVVALE,MEDI,,ISM-4668,OA,2021-07-01 16:16:00,2021-07-01 16:16:00,2021-07-05 12:04:59,2021-07-06 11:28:00,2021-07-06 11:33:00,,-34.3431,-64.9116,A01,MOP,Huawei,OA,OA Completado,2021-07-06 11:24:40,,2021-07-05 18:01:54,2021-07-05 18:21:49,2021-07-06 11:23:55,2021-07-06 11:24:40,2021-07-30
25911,A01-S040,Ruta 35#1,ActivacionLTE1900,Sin Asignar,Sin Asignar,Sin Asignar,XR35N1,MEDI,,ISM-4664,OA,2021-08-25 10:54:00,2021-08-25 10:54:00,2021-08-27 17:37:59,2021-10-27 12:15:59,2021-10-27 15:08:00,,-34.1372,-64.3733,A01,MOP,Huawei,OA,Finalizado,2021-09-24 00:00:00,,2021-08-27 17:26:43,2021-08-27 17:30:06,2021-08-30 15:28:35,2021-09-24 00:00:00,2021-08-31
25912,A01-S050,Villa Reduccion,ActivacionLTE1900,Sin Asignar,Sin Asignar,Sin Asignar,XREDUC,MEDI,,ISM-6588,OA,2021-07-08 12:31:00,2021-07-08 12:31:00,2021-07-13 12:35:00,2021-07-16 17:24:00,2021-07-16 17:30:59,,-33.2009,-63.8621,A01,MOP,Huawei,OA,OA Completado,2021-07-16 17:20:42,,2021-07-13 12:32:12,2021-07-13 12:33:36,2021-07-16 17:20:01,2021-07-16 17:20:42,2021-07-30
25913,A01-S060,Chajan,ActivacionLTE1900,Sin Asignar,Sin Asignar,Sin Asignar,XCHAJA,MEDI,,ISM-6589,OA,2021-08-24 10:03:00,2021-08-24 10:03:00,2021-08-27 14:55:59,2021-08-27 17:46:59,2021-09-02 16:54:59,,-33.5542,-65.0014,A01,MOP,Huawei,OA,OA Completado,2021-09-02 16:40:13,,2021-08-27 14:40:34,2021-08-27 14:41:31,2021-08-30 15:54:40,2021-09-02 16:40:13,2021-08-31
25914,A01-S061,Olaeta,ActivacionLTE1900,Sin Asignar,Sin Asignar,Sin Asignar,XOLAET,MEDI,,ISM-6590,OA,2021-07-29 10:48:00,2021-07-29 10:48:00,2021-08-02 15:24:00,2021-08-02 17:55:59,2021-08-02 21:17:00,,-33.0453,-63.9067,A01,MOP,Huawei,OA,OA Completado,2021-08-02 21:10:42,,2021-08-02 21:08:33,2021-08-02 21:09:11,2021-08-02 21:09:48,2021-08-02 21:10:42,2021-08-30
25915,A01-S066,Adelia Maria  (Coop),ActivacionLTE1900,Sin Asignar,Sin Asignar,Sin Asignar,XADMAR,MEDI,,ISM-4508,OA,2021-08-24 09:38:59,2021-08-24 09:38:59,2021-08-25 14:05:00,2021-08-26 16:59:59,2021-08-31 09:49:59,,-33.6307,-64.03,A01,MOP,Huawei,OA,OA Completado,2021-08-31 09:39:02,,2021-08-21 17:09:51,2021-08-21 17:11:28,2021-08-26 12:27:35,2021-08-31 09:39:02,2021-08-31
25916,A01-S068,Chucul,ActivacionLTE1900,Sin Asignar,Sin Asignar,Sin Asignar,XRCHUC,MEDI,,ISM-6593,OA,2021-07-07 08:46:59,2021-07-07 08:46:59,2021-07-13 11:44:59,2021-07-13 12:38:59,2021-07-16 09:53:00,,-33.0125,-64.17,A01,MOP,Huawei,OA,OA Completado,2021-07-16 10:04:17,,2021-07-13 11:35:27,2021-07-13 11:42:30,2021-07-16 10:02:44,2021-07-16 10:04:17,2021-08-31
25917,A01-S070,Los Cisnes,ActivacionLTE1900,MATIAS EZEQUIEL,COSENTINO,M. COSENTINO,XLCISN,MEDI,,ISM-6595,OA,2021-11-02 16:12:59,2021-11-02 16:12:59,2021-11-03 11:57:59,2021-11-03 19:05:59,2021-11-04 08:46:59,,-33.3989,-63.4761,A01,MOP,Huawei,OA,OA Completado,2021-11-04 10:45:44,,2021-10-14 19:12:35,2021-10-14 19:13:55,2021-11-03 15:11:30,2021-11-04 10:45:44,2021-10-15
25918,A01-S073,Tosquita,ActivacionLTE1900,Sin Asignar,Sin Asignar,Sin Asignar,XRTOSQ,MEDI,,ISM-4663,OA,2021-06-30 12:49:59,2021-06-30 12:49:59,2021-06-30 15:00:00,2021-07-06 11:26:59,2021-07-06 11:33:00,,-33.8208,-64.4583,A01,MOP,Huawei,OA,OA Completado,2021-07-06 11:22:46,,2021-06-30 14:51:26,2021-06-30 14:52:14,2021-07-05 11:56:12,2021-07-06 11:22:46,2021-08-31
25919,A01-S078,Monte De Los Gauchos,ActivacionLTE1900,MATIAS EZEQUIEL,COSENTINO,M. COSENTINO,XRMGAU,MEDI,,ISM-6599,OA,2021-11-02 16:16:00,2021-11-02 16:16:00,2021-11-03 12:00:00,2021-11-03 19:05:59,2021-11-04 08:48:59,,-33.6378,-63.8894,A01,MOP,Huawei,OA,OA Completado,2021-11-04 10:45:45,,2021-10-07 15:55:13,2021-10-07 15:56:49,2021-11-03 15:11:31,2021-11-04 10:45:45,2021-10-15
25920,A01-S082,Rodeo Viejo,ActivacionLTE1900,Sin Asignar,Sin Asignar,Sin Asignar,XRRVIE,MEDI,,ISM-6600,OA,2021-08-25 11:10:59,2021-08-25 11:10:59,2021-09-06 16:47:00,2021-09-07 12:13:59,2021-09-22 10:09:59,,-32.9341,-64.6986,A01,MOP,Huawei,OA,OA Completado,2021-10-15 09:41:31,,2021-09-06 16:29:31,2021-09-06 16:30:31,2021-09-06 16:50:10,2021-10-15 09:41:31,2021-08-31
25921,A01-S093,Rio Los Sauces (Mudanza),ActivacionLTE1900,Sin Asignar,Sin Asignar,Sin Asignar,XLSAUC,MEDI,,ISM-6602,OA,2019-10-17 13:03:00,2019-10-17 13:03:00,2021-06-23 09:20:59,2021-06-25 10:14:00,2021-06-28 15:06:59,,-32.5269,-64.58,A01,MOP,Huawei,OA,OA Completado,2021-06-28 15:02:03,,2021-06-23 09:10:14,2021-06-25 09:14:54,2021-06-25 09:17:45,2021-06-28 15:02:03,2021-06-30
25922,A01-S108,Malena,ActivacionLTE1900,Sin Asignar,Sin Asignar,Sin Asignar,XMALEN,MEDI,,ISM-6610,OA,2021-08-24 14:30:00,2021-08-24 14:30:00,2021-08-27 16:38:00,2021-08-30 09:31:59,2021-08-31 09:35:00,,-33.4908,-64.4366,A01,MOP,Huawei,OA,OA Completado,2021-08-31 09:26:09,,2021-08-27 15:36:49,2021-08-27 15:38:15,2021-08-27 18:33:27,2021-08-31 09:26:09,2021-08-31
25923,A01-S127,Colonia Gonzalez,ActivacionLTE1900,Sin Asignar,Sin Asignar,Sin Asignar,XCOLGO,MEDI,,ISM-6606,OA,2021-08-25 13:05:59,2021-08-25 13:05:59,2021-08-28 11:01:00,2021-08-30 18:04:59,2021-09-22 10:16:59,,-33.4889,-64.884,A01,MOP,Huawei,OA,Finalizado,2021-09-24 00:00:00,,2021-08-28 10:54:12,2021-08-28 10:55:05,2021-08-30 15:36:12,2021-09-24 00:00:00,2021-08-31
25924,A01-S129,Las Vertientes Nextel,ActivacionLTE1900,Sin Asignar,Sin Asignar,Sin Asignar,XVERNE,MEDI,,ISM-6608,OA,2021-08-24 14:26:00,2021-08-24 14:26:00,2021-08-27 16:36:59,2021-08-30 09:31:59,2021-08-31 09:27:00,,-33.3132,-64.6013,A01,MOP,Huawei,OA,OA Completado,2021-08-31 09:17:05,,2021-08-27 15:36:55,2021-08-27 15:39:08,2021-08-27 18:33:33,2021-08-31 09:17:05,2021-08-31
25925,A02-S002,La Playosa,ActivacionLTE1900,Sin Asignar,Sin Asignar,Sin Asignar,XPLAYO,MEDI,,ISM-4867,OA,2021-08-25 16:29:00,2021-08-25 16:29:00,2021-08-28 11:06:59,2021-10-27 12:15:59,2021-10-27 15:08:00,,-32.1084,-63.0423,A02,MOP,Huawei,OA,Finalizado,2021-09-24 00:00:00,,2021-08-28 10:56:40,2021-08-28 10:59:19,2021-08-30 16:16:14,2021-09-24 00:00:00,2021-08-31
25926,A02-S008,Marcos Juarez,ActivacionLTE1900,MATIAS EZEQUIEL,COSENTINO,M. COSENTINO,XMJREZ,MEDI,,ISM-4871,OA,2021-11-02 16:20:00,2021-11-02 16:20:00,2021-11-03 12:02:59,2021-11-03 19:05:59,2021-11-04 08:50:00,,-32.6983,-62.1014,A02,MOP,Huawei,OA,OA Completado,2021-11-04 10:45:45,,2021-10-14 19:12:42,2021-10-14 19:14:05,2021-11-03 15:11:31,2021-11-04 10:45:45,2021-10-15
25927,A02-S019,Pueblo Italiano,ActivacionLTE1900,Sin Asignar,Sin Asignar,Sin Asignar,XITALI,MEDI,,ISM-6639,OA,2021-06-30 11:30:59,2021-06-30 11:30:59,2021-06-30 12:04:59,2021-07-15 16:34:00,2021-07-15 17:33:59,,-33.8831,-62.8394,A02,MOP,Huawei,OA,OA Completado,2021-07-15 17:25:54,,2021-06-25 13:01:41,2021-06-30 11:57:58,2021-06-30 11:59:02,2021-07-15 17:25:54,2021-06-30
25928,A02-S024,General Roca,ActivacionLTE1900,MATIAS EZEQUIEL,COSENTINO,M. COSENTINO,XGROCA,MEDI,,ISM-6642,OA,2021-11-02 16:21:59,2021-11-02 16:21:59,2021-11-03 12:06:00,2021-11-03 19:07:00,2021-11-04 08:55:59,,-32.7289,-61.914,A02,MOP,Huawei,OA,OA Completado,2021-11-04 10:45:45,,2021-10-14 19:12:48,2021-10-14 19:14:46,2021-11-03 15:11:31,2021-11-04 10:45:45,2021-10-15
25929,A02-S028,San Marcos,ActivacionLTE1900,MATIAS EZEQUIEL,COSENTINO,M. COSENTINO,XSMARC,MEDI,,ISM-6644,OA,2021-10-07 08:50:00,2021-10-07 08:50:00,2021-10-07 10:30:00,2021-10-07 18:04:00,2021-11-03 15:45:00,,-32.63,-62.4775,A02,MOP,Huawei,OA,OA Completado,2021-11-03 16:24:28,,2021-10-07 10:17:08,2021-10-07 10:17:52,2021-10-07 16:06:02,2021-11-03 16:24:28,2021-10-15
25930,A02-S030,Isla Verde,ActivacionLTE1900,Sin Asignar,Sin Asignar,Sin Asignar,XISVER,MEDI,,ISM-6645,OA,2021-07-05 10:25:59,2021-07-05 10:25:59,2021-07-05 11:28:59,2021-07-05 17:53:59,2021-07-05 20:26:59,,-33.2408,-62.4019,A02,MOP,Huawei,OA,OA Completado,2021-07-05 20:21:28,,2021-06-27 18:19:26,2021-06-27 18:21:46,2021-07-05 11:18:44,2021-07-05 20:21:28,2021-07-30
25931,A02-S035,Viamonte,ActivacionLTE1900,Sin Asignar,Sin Asignar,Sin Asignar,XVIAMO,MEDI,,ISM-6647,OA,2021-04-08 11:15:00,2021-04-08 11:15:00,2021-07-05 08:26:00,2021-07-05 10:39:00,2021-07-05 14:46:59,,-33.7455,-63.1025,A02,MOP,Huawei,OA,OA Completado,2021-07-05 14:35:11,,2021-06-27 18:22:56,2021-07-05 08:14:57,2021-07-05 09:15:20,2021-07-05 14:35:11,2021-07-30
25932,A02-S062,Marcos Juarez Nextel,ActivacionLTE1900,MATIAS EZEQUIEL,COSENTINO,M. COSENTINO,XMAJUX,MEDI,,ISM-4870,OA,2021-11-02 16:25:59,2021-11-02 16:25:59,2021-11-03 12:08:00,2021-11-03 19:07:00,2021-11-04 09:02:59,,-32.6624,-62.0937,A02,MOP,Huawei,OA,OA Completado,2021-11-04 10:45:45,,2021-10-14 19:12:54,2021-10-14 19:15:18,2021-11-04 10:45:45,2021-11-04 10:45:45,2021-10-15
25933,A02-S077,Pampayasta Sur,ActivacionLTE1900,Sin Asignar,Sin Asignar,Sin Asignar,XPAMSU,MEDI,,ISM-6665,OA,2019-10-29 14:26:00,2019-10-29 14:26:00,2021-11-11 12:20:00,2021-11-12 17:12:59,2021-11-12 17:44:59,,-32.2508,-63.6525,A02,MOP,Huawei,OA,OA Completado,2021-11-12 17:31:16,,2021-11-11 12:00:59,2021-11-11 12:02:24,2021-11-11 15:09:33,2021-11-12 17:31:16,2021-11-30
25934,A02-S081,Ausonia,ActivacionLTE1900,Sin Asignar,Sin Asignar,Sin Asignar,XAUSON,MEDI,,ISM-6666,OA,2021-08-25 16:18:00,2021-08-25 16:18:00,2021-08-28 16:14:00,2021-08-30 18:00:00,2021-09-22 10:16:59,,-32.6646,-63.2435,A02,MOP,Huawei,OA,Finalizado,2021-09-24 00:00:00,,2021-08-28 15:57:38,2021-08-28 15:58:05,2021-08-30 16:16:21,2021-09-24 00:00:00,2021-08-31
25935,A02-S083,El Fortin,ActivacionLTE1900,Sin Asignar,Sin Asignar,Sin Asignar,XFORTI,MEDI,,ISM-6667,OA,2021-06-18 09:35:00,2021-06-18 09:35:00,2021-06-22 18:00:00,2021-06-25 13:52:00,2021-06-28 14:30:59,,-31.9669,-62.2989,A02,MOP,Huawei,OA,OA Completado,2021-06-28 14:35:35,,2021-06-22 17:15:20,2021-06-24 09:11:30,2021-06-24 09:11:58,2021-06-28 14:35:35,2021-06-30
25936,A02-S091,Ana Zumaran,ActivacionLTE1900,MATIAS EZEQUIEL,COSENTINO,M. COSENTINO,XAZUMA,MEDI,,ISM-6672,OA,2021-11-02 16:30:00,2021-11-02 16:30:00,2021-11-03 12:09:59,2021-11-03 19:07:59,2021-11-04 09:06:00,,-32.3917,-63.0569,A02,MOP,Huawei,OA,OA Completado,2021-11-04 10:45:45,,2021-10-14 19:13:01,2021-10-14 19:15:51,2021-11-03 15:11:31,2021-11-04 10:45:45,2021-10-15
25937,A02-S096,La Playosa Ii,ActivacionLTE1900,Sin Asignar,Sin Asignar,Sin Asignar,XPLAYC,MEDI,,ISM-6674,OA,2021-08-25 16:36:00,2021-08-25 16:36:00,2021-08-28 16:14:59,2021-08-30 18:06:59,2021-09-22 10:16:59,,-32.0971,-63.0357,A02,MOP,Huawei,OA,Finalizado,2021-09-24 00:00:00,,2021-08-28 15:58:19,2021-08-28 15:59:07,2021-08-30 16:16:28,2021-09-24 00:00:00,2021-08-31
25938,A02-S111,Los Surgentes Mudanza,ActivacionLTE1900,MATIAS EZEQUIEL,COSENTINO,M. COSENTINO,XSURGE,MEDI,,ISM-6677,OA,2021-10-07 08:53:59,2021-10-07 08:53:59,2021-10-07 10:34:00,2021-10-07 18:04:00,2021-11-03 15:47:00,,-32.9895,-62.0233,A02,MOP,Huawei,OA,OA Completado,2021-11-03 16:24:28,,2021-10-07 10:19:56,2021-10-07 10:20:47,2021-10-07 16:06:09,2021-11-03 16:24:28,2021-10-15
25939,A02-S112,General Baldissera Rep.,ActivacionLTE1900,Sin Asignar,Sin Asignar,Sin Asignar,XGBLDI,MEDI,,ISM-6678,OA,2021-07-05 10:30:59,2021-07-05 10:30:59,2021-07-05 11:30:00,2021-07-06 12:18:59,2021-07-16 16:09:59,,-33.1136,-62.3121,A02,MOP,Huawei,OA,OA Completado,2021-07-16 16:12:04,,2021-06-27 18:18:18,2021-06-27 18:19:08,2021-07-05 11:18:27,2021-07-16 16:12:04,2021-08-31
25940,A02-S119,Marcos Jaurez II Mudanza,ActivacionLTE1900,MATIAS EZEQUIEL,COSENTINO,M. COSENTINO,XJRZII,MEDI,,ISM-4869,OA,2021-11-02 16:34:00,2021-11-02 16:34:00,2021-11-03 12:11:59,2021-11-04 17:33:59,2021-11-04 17:53:00,,-32.6852,-62.0989,A02,MOP,Huawei,OA,OA Completado,2021-11-04 17:39:29,,2021-10-07 15:55:20,2021-10-07 15:56:57,2021-11-03 15:11:31,2021-11-04 17:39:29,2021-10-15
25941,A02-S135,Benjamin Gould,ActivacionLTE1900,MATIAS EZEQUIEL,COSENTINO,M. COSENTINO,XGOULD,MEDI,,ISM-6681,OA,2021-11-02 16:36:00,2021-11-02 16:36:00,2021-11-03 12:15:59,2021-11-03 19:07:59,2021-11-04 09:17:00,,-33.5888,-62.7266,A02,MOP,Huawei,OA,OA Completado,2021-11-04 10:45:45,,2021-10-14 19:16:02,2021-10-14 19:17:02,2021-11-03 15:11:31,2021-11-04 10:45:45,2021-10-15
25942,A03-S006,Rio Ceballos,ActivacionLTE1900,MATIAS EZEQUIEL,COSENTINO,M. COSENTINO,XRIOCE,MEDI,,ISM-5227,OA,2021-10-07 10:48:00,2021-10-07 10:48:00,2021-10-07 11:10:00,2021-10-07 18:04:59,2021-11-03 15:49:00,,-31.1644,-64.3153,A03,MOP,Huawei,OA,OA Completado,2021-11-03 16:24:28,,2021-10-07 10:13:26,2021-10-07 10:14:27,2021-10-07 16:06:16,2021-11-03 16:24:28,2021-10-15
25943,A03-S008,Serrezuela,ActivacionLTE1900,Sin Asignar,Sin Asignar,Sin Asignar,XSERRE,MEDI,,ISM-6708,OA,2021-10-05 10:47:00,2021-10-05 10:47:00,2021-11-03 12:02:00,2021-11-06 02:03:59,2021-11-08 15:29:00,,-30.6392,-65.3844,A03,MOP,Huawei,OA,OA Completado,2021-10-05 10:05:29,,2021-09-09 15:39:58,2021-09-09 16:23:06,2021-10-05 10:04:35,2021-10-05 10:05:29,2021-11-03
25944,A03-S010,Dean Funes,ActivacionLTE1900,MATIAS EZEQUIEL,COSENTINO,M. COSENTINO,XDEFUN,MEDI,,ISM-5262,OA,2021-10-07 09:00:59,2021-10-07 09:00:59,2021-10-07 10:36:00,2021-10-07 18:04:00,2021-11-03 15:54:59,,-30.4244,-64.3494,A03,MOP,Huawei,OA,OA Completado,2021-11-03 16:24:28,,2021-10-07 10:22:22,2021-10-07 10:23:14,2021-10-07 16:06:22,2021-11-03 16:24:28,2021-10-15
25945,A03-S012,Salsacate Rep.,ActivacionLTE1900,MATIAS EZEQUIEL,COSENTINO,M. COSENTINO,XSALSA,MEDI,,ISM-6711,OA,2021-11-02 16:39:00,2021-11-02 16:39:00,2021-11-03 12:18:59,2021-11-03 19:07:59,2021-11-04 09:18:59,,-31.3094,-65.0974,A03,MOP,Huawei,OA,OA Completado,2021-11-04 10:45:45,,2021-10-15 14:26:02,2021-10-15 14:28:47,2021-11-03 15:11:31,2021-11-04 10:45:45,2021-10-15
25946,A03-S022,Sebastian Elcano,ActivacionLTE1900,MATIAS EZEQUIEL,COSENTINO,M. COSENTINO,XELCAN,MEDI,,ISM-6715,OA,2021-11-02 16:41:59,2021-11-02 16:41:59,2021-11-03 12:31:59,2021-11-03 19:07:59,2021-11-04 09:20:59,,-30.1614,-63.5917,A03,MOP,Huawei,OA,OA Completado,2021-11-04 10:45:46,,2021-10-07 15:57:15,2021-10-07 15:58:50,2021-11-03 15:11:31,2021-11-04 10:45:46,2021-10-15
25947,A03-S050,La Granja,ActivacionLTE1900,MATIAS EZEQUIEL,COSENTINO,M. COSENTINO,XLGRJA,MEDI,,ISM-6724,OA,2021-11-02 16:43:00,2021-11-02 16:43:00,2021-11-03 12:33:59,2021-11-03 19:09:59,2021-11-04 09:22:59,,-31.0083,-64.2675,A03,MOP,Huawei,OA,OA Completado,2021-11-04 10:45:46,,2021-10-07 15:57:22,2021-10-07 15:58:57,2021-11-03 15:11:32,2021-11-04 10:45:46,2021-10-15
25948,A03-S052,El Tio,ActivacionLTE1900,MATIAS EZEQUIEL,COSENTINO,M. COSENTINO,XELTIO,MEDI,,ISM-6726,OA,2021-11-02 16:45:59,2021-11-02 16:45:59,2021-11-03 12:45:59,2021-11-03 19:09:59,2021-11-04 09:24:59,,-31.3833,-62.8306,A03,MOP,Huawei,OA,OA Completado,2021-11-04 10:45:46,,2021-10-15 14:26:08,2021-10-15 14:28:53,2021-11-03 15:11:32,2021-11-04 10:45:46,2021-10-15
25949,A03-S068,Rio Tercero,ActivacionLTE1900,Sin Asignar,Sin Asignar,Sin Asignar,XRTERC,MEDI,,ISM-5271,OA,2021-10-05 11:42:00,2021-10-05 11:42:00,2021-10-05 13:54:00,2021-10-05 18:13:59,2021-10-05 19:00:00,,-32.175,-64.1136,A03,MOP,Huawei,OA,OA Completado,2021-10-07 09:32:05,,2021-10-07 09:29:55,2021-10-07 09:30:39,2021-10-07 09:31:29,2021-10-07 09:32:05,2021-11-17
25950,A03-S070,Corralito,ActivacionLTE1900,Sin Asignar,Sin Asignar,Sin Asignar,XICORA,MEDI,,ISM-6728,OA,2021-06-25 11:42:00,2021-06-25 11:42:00,2021-06-25 17:05:00,2021-06-25 17:24:59,2021-06-28 10:25:00,,-32.0269,-64.1878,A03,MOP,Huawei,OA,OA Completado,2021-06-28 10:34:58,,2021-06-24 17:12:12,2021-06-24 17:13:21,2021-06-28 10:25:08,2021-06-28 10:34:58,2021-06-30
25951,A03-S121,San Carlos Minas,ActivacionLTE1900,Sin Asignar,Sin Asignar,Sin Asignar,XMINAS,MEDI,,ISM-6750,OA,2021-08-11 16:54:59,2021-08-11 16:54:59,2021-08-15 12:20:59,2021-08-17 00:38:00,2021-08-17 10:30:59,,-31.1726,-65.0976,A03,MOP,Huawei,OA,OA Completado,2021-08-17 10:40:56,,2021-08-17 10:39:02,2021-08-17 10:39:46,2021-08-17 10:40:16,2021-08-17 10:40:56,2021-08-30
25952,A03-S128,Ambul,ActivacionLTE1900,Sin Asignar,Sin Asignar,Sin Asignar,XAMBUL,MEDI,,ISM-6740,OA,2021-09-23 10:21:59,2021-09-23 10:21:59,2021-09-23 10:21:59,2021-09-23 19:11:00,2021-10-26 17:21:59,,-31.4954,-65.1109,A03,MOP,Huawei,OA,Finalizado,2021-09-24 00:00:00,,2021-09-07 20:02:06,2021-09-07 20:03:21,2021-09-17 10:53:15,2021-09-24 00:00:00,2021-09-30
25953,A03-S130,Agua De Oro,ActivacionLTE1900,Sin Asignar,Sin Asignar,Sin Asignar,XAGORO,MEDI,,ISM-6742,OA,2021-04-08 08:44:00,2021-04-08 08:44:00,2021-09-02 12:54:59,2021-09-02 15:58:59,2021-09-22 10:09:59,,-31.0593,-64.2963,A03,MOP,Huawei,OA,Finalizado,2021-09-24 00:00:00,,2021-09-02 12:39:07,2021-09-02 12:39:41,2021-09-02 14:14:58,2021-09-24 00:00:00,2021-09-30
25954,A03-S157,CORDOBA ALEJANDRIA,ActivacionLTE1900,Sin Asignar,Sin Asignar,Sin Asignar,XCMALE,MEDI,,ISM-9755,OA,2020-10-29 11:35:00,2020-10-29 11:35:00,2020-11-02 16:07:00,2020-11-02 18:00:00,2020-11-03 14:03:00,,-31.417013,-64.189129,,MOP,Huawei,OA,OA Completado,2021-09-17 10:31:49,,2021-09-17 10:28:47,2021-09-17 10:29:16,2021-09-17 10:29:36,2021-09-17 10:31:49,2021-11-03
25955,A03-S170,Los Condores,ActivacionLTE1900,MATIAS EZEQUIEL,COSENTINO,M. COSENTINO,XLCOND,MEDI,,ISM-6748,OA,2021-11-02 16:48:59,2021-11-02 16:48:59,2021-11-03 12:47:00,2021-11-03 19:09:59,2021-11-04 09:27:00,,-32.3194,-64.274,A03,MOP,Huawei,OA,OA Completado,2021-11-04 10:45:46,,2021-10-14 19:16:08,2021-10-14 19:21:43,2021-11-03 15:11:32,2021-11-04 10:45:46,2021-10-15
25956,A03-S223,Bosque Alegre,ActivacionLTE1900,Sin Asignar,Sin Asignar,Sin Asignar,XALEGR,MEDI,,ISM-6851,OA,2021-08-10 09:04:59,2021-08-10 09:04:59,2021-08-13 16:16:59,2021-08-13 16:47:00,2021-08-13 17:06:00,,-31.5978,-64.5501,A03,MOP,Huawei,OA,OA Completado,2021-08-13 17:09:35,,2021-08-13 16:53:46,2021-08-13 17:08:22,2021-08-13 17:08:52,2021-08-13 17:09:35,2021-09-30
25957,A03-S270,Bower,ActivacionLTE1900,Sin Asignar,Sin Asignar,Sin Asignar,XBOWER,MEDI,,ISM-6848,OA,2021-06-22 10:29:00,2021-06-22 10:29:00,2021-06-22 10:34:00,2021-06-23 13:00:00,2021-06-25 09:15:00,,-31.5589,-64.1817,A03,MOP,Huawei,OA,OA Completado,2021-06-25 09:10:11,,2021-06-17 11:54:22,2021-06-22 10:23:46,2021-06-22 10:24:54,2021-06-25 09:10:11,2021-09-30
25958,A03-S271,Los Hornillos,ActivacionLTE1900,MATIAS EZEQUIEL,COSENTINO,M. COSENTINO,XLHORN,MEDI,,ISM-6847,OA,2021-11-03 09:40:00,2021-11-03 09:40:00,2021-11-03 12:51:00,2021-11-03 19:11:00,2021-11-04 09:29:00,,-31.9032,-64.9877,A03,MOP,Huawei,OA,OA Completado,2021-11-04 10:45:46,,2021-10-14 19:16:14,2021-10-14 19:21:49,2021-11-03 15:11:32,2021-11-04 10:45:46,2021-10-15
25959,A03-S273,Santiago Temple,ActivacionLTE1900,Sin Asignar,Sin Asignar,Sin Asignar,XSTEMP,MEDI,,ISM-6845,OA,2021-08-31 09:04:00,2021-08-31 09:04:00,2021-08-31 09:42:00,2021-08-31 11:48:59,2021-08-31 14:35:00,,-31.3889,-63.4233,A03,MOP,Huawei,OA,OA Completado,2021-08-31 14:36:19,,2021-08-31 14:34:25,2021-08-31 14:35:05,2021-08-31 14:35:37,2021-08-31 14:36:19,2021-08-30
25960,A03-S275,Villa Parque Santa Ana,ActivacionLTE1900,EMILIANO,HORVATH,E. HORVATH,XVSANA,MEDI,,ISM-6843,OA,2021-09-01 09:13:00,2021-09-01 09:13:00,2021-09-01 15:33:00,2021-11-11 17:51:59,2021-11-12 16:54:59,,-31.5795,-64.3567,A03,MOP,Huawei,OA,Finalizado,2021-09-24 00:00:00,,2021-09-01 15:17:59,2021-09-01 15:20:45,2021-09-02 09:12:19,2021-09-24 00:00:00,2021-09-30
25961,A03-S292,Cañada De Luque,ActivacionLTE1900,Sin Asignar,Sin Asignar,Sin Asignar,XICLUQ,MEDI,,ISM-6826,OA,2021-08-09 16:52:59,2021-08-09 16:52:59,2021-08-09 17:30:59,2021-08-10 10:34:59,2021-08-10 18:04:59,,-30.7364,-63.7339,A03,MOP,Huawei,OA,OA Completado,2021-08-10 22:15:27,,2021-08-10 22:13:35,2021-08-10 22:14:20,2021-08-10 22:14:49,2021-08-10 22:15:27,2021-08-30
25962,A03-S296,Falda Del Carmen,ActivacionLTE1900,Sin Asignar,Sin Asignar,Sin Asignar,XFCARM,MEDI,,ISM-6827,OA,2021-09-01 14:48:00,2021-09-01 14:48:00,2021-09-01 14:50:00,2021-09-01 16:30:00,2021-09-22 10:16:59,,-31.5347,-64.4542,A03,MOP,Huawei,OA,Finalizado,2021-09-24 00:00:00,,2021-09-01 11:00:34,2021-09-01 11:01:35,2021-09-03 10:48:36,2021-09-24 00:00:00,2021-09-10
25963,A03-S300,La Paz,ActivacionLTE1900,Sin Asignar,Sin Asignar,Sin Asignar,XLAPAZ,MEDI,,ISM-5328,OA,2021-08-04 14:30:00,2021-08-04 14:30:00,2021-08-04 19:09:59,2021-08-06 13:29:00,2021-08-09 12:35:00,,-32.2172,-65.0447,A03,MOP,Huawei,OA,OA Completado,2021-08-09 12:23:34,,2021-08-04 19:26:57,2021-08-04 19:27:26,2021-08-05 17:31:35,2021-08-09 12:23:34,2021-08-30
25964,A03-S301,La Arrias,ActivacionLTE1900,MATIAS EZEQUIEL,COSENTINO,M. COSENTINO,XLARRI,MEDI,,ISM-6829,OA,2021-11-03 09:40:59,2021-11-03 09:40:59,2021-11-03 12:58:59,2021-11-03 19:11:00,2021-11-04 09:31:00,,-30.3772,-63.5947,A03,MOP,Huawei,OA,OA Completado,2021-11-04 10:45:46,,2021-10-07 15:57:28,2021-10-07 15:59:03,2021-11-03 15:11:32,2021-11-04 10:45:46,2021-10-15
25965,A03-S307,Rio Tercero Ii,ActivacionLTE1900,MATIAS EZEQUIEL,COSENTINO,M. COSENTINO,XRTERB,MEDI,,ISM-5269,OA,2021-11-03 08:19:59,2021-11-03 08:19:59,2021-11-03 13:03:00,2021-11-03 19:11:00,2021-11-04 09:35:00,,-32.1862,-64.1267,A03,MOP,Huawei,OA,OA Completado,2021-11-04 10:45:46,,2021-10-07 15:59:13,2021-10-07 16:01:18,2021-11-03 15:11:32,2021-11-04 10:45:46,2021-10-15
25966,A03-S312,Va De Soto Central,ActivacionLTE1900,Sin Asignar,Sin Asignar,Sin Asignar,XVSOTC,MEDI,,ISM-6831,OA,2021-08-26 11:19:59,2021-08-26 11:19:59,2021-08-31 20:35:00,2021-09-06 16:39:59,2021-10-26 17:06:59,,-30.855,-64.9969,A03,MOP,Huawei,OA,Finalizado,2021-09-24 00:00:00,,2021-08-31 20:26:43,2021-08-31 20:29:27,2021-09-06 15:46:12,2021-09-24 00:00:00,2021-09-10
25967,A03-S317,Ambul Centro,ActivacionLTE1900,MATIAS EZEQUIEL,COSENTINO,M. COSENTINO,XAMBUC,MEDI,,ISM-6832,OA,2021-11-03 09:44:00,2021-11-03 09:44:00,2021-11-03 13:03:59,2021-11-03 19:12:00,2021-11-04 09:36:59,,-31.4898,-65.0545,A03,MOP,Huawei,OA,OA Completado,2021-11-04 10:45:47,,2021-10-15 14:26:15,2021-10-15 14:29:01,2021-11-03 15:11:32,2021-11-04 10:45:47,2021-10-15
25968,A03-S326,Dean Funes Ii,ActivacionLTE1900,MATIAS EZEQUIEL,COSENTINO,M. COSENTINO,XDFUNB,MEDI,,ISM-5220,OA,2019-12-19 07:43:00,2019-12-19 07:43:00,2021-11-02 15:20:00,2021-11-02 17:03:59,2021-11-03 13:05:59,,-30.4324,-64.3352,A03,MOP,Huawei,OA,OA Completado,2021-11-03 15:12:13,,2021-10-07 15:59:19,2021-10-07 16:01:25,2021-11-03 15:12:13,2021-11-03 15:12:13,2021-10-15
25969,A03-S330,San Jose De Las Salinas,ActivacionLTE1900,MATIAS EZEQUIEL,COSENTINO,M. COSENTINO,XSJSAL,MEDI,,ISM-6834,OA,2021-11-03 09:49:59,2021-11-03 09:49:59,2021-11-03 13:12:00,2021-11-03 19:12:00,2021-11-04 09:40:00,,-30.0106,-64.6236,A03,MOP,Huawei,OA,OA Completado,2021-11-04 10:45:47,,2021-10-15 14:26:21,2021-10-15 14:29:08,2021-11-03 15:11:33,2021-11-04 10:45:47,2021-10-15
25970,A03-S346,Gral  Foheringham,ActivacionLTE1900,MATIAS EZEQUIEL,COSENTINO,M. COSENTINO,XGFOTH,MEDI,,ISM-6836,OA,2021-11-03 10:20:00,2021-11-03 10:20:00,2021-11-03 13:14:00,2021-11-03 19:12:00,2021-11-04 09:45:00,,-32.3236,-63.87,A03,MOP,Huawei,OA,OA Completado,2021-11-04 10:45:47,,2021-10-14 19:16:22,2021-10-14 19:21:55,2021-11-03 15:11:33,2021-11-04 10:45:47,2021-10-15
25971,A03-S361,San Clemente,ActivacionLTE1900,Sin Asignar,Sin Asignar,Sin Asignar,XSCLEM,MEDI,,ISM-6765,OA,2021-06-17 15:00:00,2021-06-17 15:00:00,2021-06-17 15:13:59,2021-06-23 13:03:00,2021-06-25 09:33:00,,-31.7138,-64.6235,A03,MOP,Huawei,OA,OA Completado,2021-06-25 09:23:22,,2021-06-17 12:37:05,2021-06-23 22:53:59,2021-06-23 22:54:24,2021-06-25 09:23:22,2021-09-30
25972,A03-S365,Cienaga Del Coro,ActivacionLTE1900,MATIAS EZEQUIEL,COSENTINO,M. COSENTINO,XICCOR,MEDI,,ISM-6768,OA,2021-11-03 08:24:00,2021-11-03 08:24:00,2021-11-03 13:16:59,2021-11-03 19:12:00,2021-11-04 09:40:59,,-31.0408,-65.2825,A03,MOP,Huawei,OA,OA Completado,2021-11-04 10:45:47,,2021-10-15 14:26:27,2021-10-15 14:29:14,2021-11-03 15:11:33,2021-11-04 10:45:47,2021-10-15
25973,A03-S373,Tala Cañada,ActivacionLTE1900,Sin Asignar,Sin Asignar,Sin Asignar,XTALAC,MEDI,,ISM-6770,OA,2021-07-30 15:33:00,2021-07-30 15:33:00,2021-08-02 15:36:59,2021-08-02 17:55:59,2021-08-05 20:01:00,,-31.358,-64.9719,A03,MOP,Huawei,OA,OA Completado,2021-08-05 19:47:31,,2021-08-05 19:45:33,2021-08-05 19:46:15,2021-08-05 19:46:47,2021-08-05 19:47:31,2021-08-30
25974,A03-S389,Chancani,ActivacionLTE1900,Sin Asignar,Sin Asignar,Sin Asignar,XCHANC,MEDI,,ISM-6771,OA,2021-06-25 11:57:59,2021-06-25 11:57:59,2021-06-25 17:06:59,2021-06-25 17:19:00,2021-07-16 16:11:00,,-31.4182,-65.4531,A03,MOP,Huawei,OA,OA Completado,2021-07-16 16:10:12,,2021-06-24 17:14:52,2021-06-24 17:16:00,2021-07-16 16:09:18,2021-07-16 16:10:12,2021-07-30
25975,A03-S433,Capilla De Siton,ActivacionLTE1900,Sin Asignar,Sin Asignar,Sin Asignar,XSITON,MEDI,,ISM-6775,OA,2021-08-31 09:00:00,2021-08-31 09:00:00,2021-08-31 09:40:59,2021-08-31 11:48:00,2021-11-03 15:54:59,,-30.5717,-63.6547,A03,MOP,Huawei,OA,OA Completado,2021-08-31 14:29:24,,2021-08-31 14:27:30,2021-08-31 14:28:16,2021-08-31 14:28:47,2021-08-31 14:29:24,2021-08-30
25976,A03-S439,Cordoba Dinosaurio Mall,ActivacionLTE1900,Sin Asignar,Sin Asignar,Sin Asignar,XCDMOL,MEDI,,ISM-6785,OA,2021-08-31 10:03:00,2021-08-31 10:03:00,2021-08-31 10:09:59,2021-08-31 11:50:00,2021-08-31 14:37:59,,-31.3674,-64.219,A03,MOP,Huawei,OA,OA Completado,2021-08-31 15:46:28,,2021-08-31 15:42:23,2021-08-31 15:43:35,2021-08-31 15:45:40,2021-08-31 15:46:28,2021-09-10
25977,A03-S448,Paso Viejo,ActivacionLTE1900,MATIAS EZEQUIEL,COSENTINO,M. COSENTINO,XPAVIE,MEDI,,ISM-6776,OA,2021-11-03 08:28:59,2021-11-03 08:28:59,2021-11-03 13:23:00,2021-11-03 19:14:00,2021-11-04 09:49:00,,-30.7737,-65.1757,A03,MOP,Huawei,OA,OA Completado,2021-11-04 10:45:47,,2021-10-15 14:41:28,2021-10-15 14:48:24,2021-11-03 15:11:33,2021-11-04 10:45:47,2021-10-15
25978,A03-S614,Los Condores Nextel,ActivacionLTE1900,Sin Asignar,Sin Asignar,Sin Asignar,XCONNX,MEDI,,ISM-6613,OA,2021-09-01 09:42:59,2021-09-01 09:42:59,2021-09-10 17:21:00,2021-09-13 12:26:00,2021-09-22 10:16:59,,-32.3629,-64.3322,A03,MOP,Huawei,OA,Finalizado,2021-09-24 00:00:00,,2021-09-10 17:08:46,2021-09-10 17:09:34,2021-09-10 17:11:14,2021-09-24 00:00:00,2021-09-10
25979,A03-S798,San Vicente,ActivacionLTE1900,MATIAS EZEQUIEL,COSENTINO,M. COSENTINO,XSANVI,MEDI,,ISM-5357,OA,2021-11-03 08:33:00,2021-11-03 08:33:00,2021-11-03 14:39:00,2021-11-03 19:14:00,2021-11-04 09:54:00,,-31.8519,-65.4295,A03,MOP,Huawei,OA,OA Completado,2021-11-04 10:45:47,,2021-10-14 19:16:29,2021-10-14 19:22:02,2021-11-03 15:11:33,2021-11-04 10:45:47,2021-10-15
25981,A03-S811,Falda Del Carmen Teco,ActivacionLTE1900,Sin Asignar,Sin Asignar,Sin Asignar,XFACAT,MEDI,,ISM-6622,OA,2021-06-17 15:02:59,2021-06-17 15:02:59,2021-06-17 15:22:00,2021-06-25 10:34:59,2021-06-25 10:39:59,,-31.5898,-64.457,A03,MOP,Huawei,OA,OA Completado,2021-06-25 10:33:02,,2021-06-17 12:44:26,2021-06-25 10:31:01,2021-06-25 10:32:16,2021-06-25 10:33:02,2021-09-30
25982,A03-S813,Villa Pque Sta Ana Teco,ActivacionLTE1900,Sin Asignar,Sin Asignar,Sin Asignar,XVPSAT,MEDI,,ISM-6624,OA,2021-09-01 09:09:59,2021-09-01 09:09:59,2021-09-10 16:56:00,2021-09-13 12:29:00,2021-09-22 10:16:59,,-31.5921,-64.3497,A03,MOP,Huawei,OA,Finalizado,2021-09-24 00:00:00,,2021-09-10 16:54:48,2021-09-10 16:55:50,2021-09-10 17:00:54,2021-09-24 00:00:00,2021-09-10
25983,A03-S823,Bower Pueblo,ActivacionLTE1900,Sin Asignar,Sin Asignar,Sin Asignar,XBOWPU,MEDI,,ISM-6627,OA,2021-06-17 15:06:00,2021-06-17 15:06:00,2021-06-17 15:22:59,2021-06-25 10:16:00,2021-06-25 10:18:59,,-31.5375,-64.1691,A03,MOP,Huawei,OA,OA Completado,2021-06-28 09:15:14,,2021-06-17 12:30:59,2021-06-23 22:50:50,2021-06-23 22:51:17,2021-06-28 09:15:14,2021-09-30
25984,A06-S001,Altos De Chipion,ActivacionLTE1900,MATIAS EZEQUIEL,COSENTINO,M. COSENTINO,XACHIP,MEDI,,ISM-16776,OA,2021-10-20 16:39:59,2021-10-20 16:39:59,2021-10-20 16:57:00,2021-10-20 18:02:00,2021-11-03 16:00:59,,-30.9603,-62.3383,A06,MOP,Huawei,OA,OA Completado,2021-11-03 16:24:28,,2021-10-20 17:06:18,2021-10-20 17:07:07,2021-10-21 23:47:58,2021-11-03 16:24:28,2021-10-15
25992,A06-S033,Los Cardos,ActivacionLTE1900,Sin Asignar,Sin Asignar,Sin Asignar,ZLCARD,LITO,,ISM-13721,OA,2021-05-28 08:44:59,2021-05-28 08:44:59,2021-05-28 09:24:00,2021-07-08 18:58:00,2021-07-12 16:18:59,,-32.3194,-61.631,A06,MOP,Huawei,OA,OA Completado,2021-07-12 16:07:51,,2021-06-28 16:03:35,2021-06-28 16:04:49,2021-07-08 16:38:04,2021-07-12 16:07:51,2021-07-30
25995,A06-S043,Colonia Marina,ActivacionLTE1900,MATIAS EZEQUIEL,COSENTINO,M. COSENTINO,XCMARI,MEDI,,ISM-17268,OA,2021-11-04 09:47:00,2021-11-04 09:47:00,2021-11-04 11:01:59,2021-11-04 17:35:59,2021-11-12 17:26:00,,-31.2492,-62.3664,A06,MOP,Huawei,OA,OA Completado,2021-11-12 17:16:30,,2021-10-14 19:22:18,2021-10-14 19:24:49,2021-11-04 17:33:22,2021-11-12 17:16:30,2021-10-15
25996,A06-S062,La Paquita,ActivacionLTE1900,MATIAS EZEQUIEL,COSENTINO,M. COSENTINO,XLPAQU,MEDI,,ISM-16326,OA,2021-10-20 11:48:59,2021-10-20 11:48:59,2021-10-20 12:29:00,2021-10-20 17:53:59,2021-11-03 16:03:00,,-30.909,-62.2196,A06,MOP,Huawei,OA,OA Completado,2021-11-03 16:24:29,,2021-10-20 10:46:27,2021-10-20 14:19:39,2021-10-22 14:29:20,2021-11-03 16:24:29,2021-12-03
25997,A06-S063,Colonia San Bartolome,ActivacionLTE1900,Sin Asignar,Sin Asignar,Sin Asignar,XCSBAR,MEDI,,ISM-15651,OA,2021-07-12 10:41:00,2021-07-12 10:41:00,2021-07-12 11:21:00,2021-07-13 11:44:00,2021-07-14 18:15:00,,-31.5419,-62.7414,A06,MOP,Huawei,OA,OA Completado,2021-07-15 08:56:04,,2021-07-12 09:47:38,2021-07-12 09:55:20,2021-07-12 11:11:03,2021-07-15 08:56:04,2021-07-30
